{
  "version": 0.6,
  "generator": "Overpass API 0.7.62.11 87bfad18",
  "osm3s": {
    "timestamp_osm_base": "2026-04-02T18:37:15Z",
    "timestamp_areas_base": "2026-04-02T09:50:53Z",
    "copyright": "The data included in this document is from www.openstreetmap.org. The data is made available under ODbL."
  },
  "elements": [

{
  "type": "node",
  "id": 265777706,
  "lat": 67.1173422,
  "lon": 14.7458448,
  "tags": {
    "capacity": "23",
    "dnt:classification": "ubetjent",
    "dnt:iid": "370",
    "dnt:lock": "yes",
    "ele": "315",
    "name": "Lurfjellhytta",
    "network": "Den Norske Turistforening",
    "operator": "Bodø og Omegns Turistforening",
    "ref:kartverket:hytte": "1044",
    "tourism": "wilderness_hut",
    "website": "https://ut.no/hytte/lurfjellhytta"
  }
},
{
  "type": "node",
  "id": 278081326,
  "lat": 68.6290545,
  "lon": 14.5642855,
  "tags": {
    "amenity": "shelter",
    "tourism": "picnic_site",
    "type": "lean-to"
  }
},
{
  "type": "node",
  "id": 281920558,
  "lat": 62.3505942,
  "lon": 12.0493414,
  "tags": {
    "capacity": "25",
    "dnt:classification": "selvbetjent",
    "dnt:iid": "97",
    "dnt:lock": "yes",
    "ele": "715",
    "name": "Røvollen",
    "network": "Den Norske Turistforening",
    "operator": "DNT Oslo og Omegn",
    "provisions": "yes",
    "ref:kartverket:hytte": "1112",
    "tourism": "wilderness_hut",
    "website": "https://ut.no/hytte/roevollen"
  }
},
{
  "type": "node",
  "id": 287961798,
  "lat": 60.0513076,
  "lon": 10.7612734,
  "tags": {
    "capacity": "8",
    "dnt:classification": "ubetjent",
    "dnt:iid": "224",
    "dnt:lock": "yes",
    "ele": "465",
    "name": "Lille Tømtehytta",
    "network": "Den Norske Turistforening",
    "operator": "DNT Oslo og Omegn",
    "ref:kartverket:hytte": "1144",
    "tourism": "wilderness_hut",
    "website": "https://ut.no/hytte/10780/lille-tmtehytta"
  }
},
{
  "type": "node",
  "id": 289978936,
  "lat": 60.6681596,
  "lon": 7.2486228,
  "tags": {
    "capacity": "53",
    "dnt:classification": "selvbetjent",
    "dnt:iid": "147",
    "dnt:lock": "yes",
    "ele": "1090",
    "name": "Hallingskeid Turisthytte",
    "network": "Den Norske Turistforening",
    "operator": "Bergen Turlag",
    "provisions": "yes",
    "ref:kartverket:hytte": "1019",
    "service": "self",
    "tourism": "wilderness_hut",
    "website": "https://hyttebestilling.dnt.no/hytte/10805"
  }
},
{
  "type": "node",
  "id": 291241117,
  "lat": 61.3561246,
  "lon": 8.5958306,
  "tags": {
    "alt_name": "Torfinnsbu",
    "capacity": "36",
    "dnt:classification": "betjent",
    "dnt:iid": "1327",
    "ele": "1060",
    "name": "Thonvollen",
    "network": "Den Norske Turistforening",
    "note": "Torfinnsbu is re-named to Thonvollen in 2017 to honour Olav Thon for his efforts to keep the cabin open to hikers.",
    "provisions": "yes",
    "ref:kartverket:hytte": "5124",
    "service": "full",
    "tourism": "wilderness_hut",
    "website": "https://ut.no/hytte/torfinnsbu"
  }
},
{
  "type": "node",
  "id": 292351473,
  "lat": 59.9720259,
  "lon": 10.3716819,
  "tags": {
    "capacity": "30",
    "dnt:classification": "ubetjent",
    "dnt:iid": "216",
    "dnt:lock": "yes",
    "ele": "355",
    "name": "Mustadkroken",
    "network": "Den Norske Turistforening",
    "operator": "DNT Oslo og Omegn",
    "ref:kartverket:hytte": "1098",
    "tourism": "wilderness_hut",
    "website": "https://ut.no/hytte/mustadkroken"
  }
},
{
  "type": "node",
  "id": 301159254,
  "lat": 60.8233421,
  "lon": 11.4369972,
  "tags": {
    "amenity": "shelter",
    "heating": "stove",
    "name": "Mosjøkoia",
    "operator": "Løiten Almenning",
    "shelter_type": "basic_hut",
    "website": "https://loitenalmenning.no/2015/04/23/mosjokoia/"
  }
},
{
  "type": "node",
  "id": 301159255,
  "lat": 60.8225021,
  "lon": 11.4468071,
  "tags": {
    "amenity": "shelter",
    "heating": "stove",
    "lockable": "yes",
    "name": "Mosjøbergkoia",
    "operator": "Løiten Almenning",
    "shelter_type": "basic_hut"
  }
},
{
  "type": "node",
  "id": 301159257,
  "lat": 60.8369901,
  "lon": 11.4660816,
  "tags": {
    "capacity": "8",
    "dnt:classification": "ubetjent",
    "dnt:iid": "519",
    "dnt:lock": "yes",
    "ele": "340",
    "name": "Svartskogkoia",
    "network": "Den Norske Turistforening",
    "operator": "Hamar og Hedemarken Turistforening",
    "ref:kartverket:hytte": "1175",
    "tourism": "wilderness_hut",
    "website": "https://ut.no/hytte/svartskogkoia"
  }
},
{
  "type": "node",
  "id": 303381561,
  "lat": 60.8552425,
  "lon": 11.4584070,
  "tags": {
    "amenity": "shelter",
    "name": "Smalmyrkoia",
    "shelter_type": "basic_hut"
  }
},
{
  "type": "node",
  "id": 303381805,
  "lat": 60.8273702,
  "lon": 11.4548674,
  "tags": {
    "amenity": "shelter",
    "heating": "stove",
    "name": "Sletthellkoia",
    "operator": "Løiten Almenning",
    "shelter_type": "basic_hut",
    "website": "https://loitenalmenning.no/2015/04/23/sletthellkoia/"
  }
},
{
  "type": "node",
  "id": 303382316,
  "lat": 60.8190774,
  "lon": 11.4703678,
  "tags": {
    "alt_name": "Små",
    "amenity": "shelter",
    "capacity": "3",
    "dnt:classification": "nødbu",
    "dnt:iid": "390",
    "ele": "290",
    "heating": "stove",
    "name": "Småsætra",
    "network": "Den Norske Turistforening",
    "no-kartverket-ssr:date": "2003-11-14",
    "no-kartverket-ssr:objid": "132656",
    "no-kartverket-ssr:url": "http://faktaark.statkart.no/SSRFakta/faktaarkfraobjektid?enhet=855282",
    "operator": "Løiten Almenning",
    "ref:kartverket:hytte": "5258",
    "shelter_type": "basic_hut",
    "website": "https://ut.no/hytte/smaasaetra"
  }
},
{
  "type": "node",
  "id": 303382319,
  "lat": 60.8254687,
  "lon": 11.4702558,
  "tags": {
    "alt_name": "Svarttjernkoia",
    "amenity": "shelter",
    "capacity": "5",
    "dnt:classification": "nødbu",
    "dnt:iid": "393",
    "ele": "305",
    "heating": "stove",
    "name": "Svarttjennkoia",
    "network": "Den Norske Turistforening",
    "operator": "Løiten Almenning",
    "ref:kartverket:hytte": "5260",
    "shelter_type": "basic_hut",
    "website": "https://ut.no/hytte/svarttjernkoia"
  }
},
{
  "type": "node",
  "id": 316624011,
  "lat": 62.7219005,
  "lon": 8.7764311,
  "tags": {
    "capacity": "53",
    "dnt:classification": "selvbetjent",
    "dnt:iid": "1454",
    "dnt:lock": "yes",
    "ele": "405",
    "name": "Innerdalshytta",
    "network": "Den Norske Turistforening",
    "operator": "Kristiansund og Nordmøre Turistforening",
    "provisions": "yes",
    "ref:kartverket:hytte": "1440",
    "tourism": "wilderness_hut",
    "website": "https://ut.no/hytte/10940"
  }
},
{
  "type": "node",
  "id": 317318271,
  "lat": 58.7073931,
  "lon": 5.8106803,
  "tags": {
    "name": "Speiderhytta",
    "operator": "Bryne KFUK/KFUM",
    "tourism": "wilderness_hut"
  }
},
{
  "type": "node",
  "id": 318388730,
  "lat": 59.2550509,
  "lon": 10.9828762,
  "tags": {
    "amenity": "shelter",
    "shelter_type": "lean_to"
  }
},
{
  "type": "node",
  "id": 321757355,
  "lat": 60.9544902,
  "lon": 11.0658838,
  "tags": {
    "amenity": "shelter",
    "name": "Blåmyrkoia",
    "operator": "Furnes Almenning",
    "ref:kartverket:hytte": "9999",
    "shelter_type": "basic_hut"
  }
},
{
  "type": "node",
  "id": 331256834,
  "lat": 59.8458944,
  "lon": 10.3576549,
  "tags": {
    "capacity": "8",
    "dnt:classification": "ubetjent",
    "dnt:iid": "1508",
    "dnt:lock": "yes",
    "ele": "455",
    "name": "Hovdehytta",
    "network": "Den Norske Turistforening",
    "operator": "DNT Oslo og Omegn",
    "ref:kartverket:hytte": "1443",
    "supervisor": "DNT Oslo og Omegn;Asker Turlag",
    "tourism": "wilderness_hut",
    "website": "https://ut.no/hytte/hovdehytta"
  }
},
{
  "type": "node",
  "id": 331329353,
  "lat": 62.6360878,
  "lon": 9.7078181,
  "tags": {
    "amenity": "shelter"
  }
},
{
  "type": "node",
  "id": 339326264,
  "lat": 69.6809402,
  "lon": 19.2087800,
  "tags": {
    "capacity": "5",
    "dnt:classification": "ubetjent",
    "dnt:iid": "263",
    "dnt:lock": "yes",
    "ele": "235",
    "name": "Blåkollkoia",
    "network": "Den Norske Turistforening",
    "operator": "Troms Turlag",
    "ref:kartverket:hytte": "1362",
    "tourism": "wilderness_hut",
    "website": "https://ut.no/hytte/blaakollkoia"
  }
},
{
  "type": "node",
  "id": 339326265,
  "lat": 69.6380678,
  "lon": 19.2011094,
  "tags": {
    "capacity": "4",
    "dnt:classification": "selvbetjent",
    "dnt:iid": "272",
    "dnt:lock": "yes",
    "ele": "585",
    "name": "Skarvassbu",
    "network": "Den Norske Turistforening",
    "operator": "Troms Turlag",
    "ref:kartverket:hytte": "1370",
    "tourism": "wilderness_hut",
    "website": "https://ut.no/hytte/skarvassbu"
  }
},
{
  "type": "node",
  "id": 339398252,
  "lat": 69.3208625,
  "lon": 21.9691124,
  "tags": {
    "capacity": "16",
    "designation": "DNT (locked)",
    "dnt:classification": "ubetjent",
    "dnt:iid": "268",
    "dnt:lock": "yes",
    "ele": "145",
    "idrettsanleggregisteret:iid": "1942004201",
    "name": "Nedrefosshytta",
    "network": "Den Norske Turistforening",
    "operator": "Troms Turlag",
    "owner": "Troms Turlag",
    "ref:kartverket:hytte": "1366",
    "service": "no",
    "tourism": "wilderness_hut",
    "website": "https://ut.no/hytte/nedrefosshytta"
  }
},
{
  "type": "node",
  "id": 339405682,
  "lat": 69.0529755,
  "lon": 20.2541688,
  "tags": {
    "capacity": "20",
    "dnt:classification": "ubetjent",
    "dnt:iid": "33",
    "dnt:lock": "yes",
    "ele": "706",
    "name": "Gappohytta",
    "network": "Den Norske Turistforening",
    "operator": "DNT Oslo og Omegn",
    "ref:bygningsnr": "192059909",
    "ref:kartverket:hytte": "1066",
    "tourism": "wilderness_hut",
    "website": "https://ut.no/hytte/gappohytta"
  }
},
{
  "type": "node",
  "id": 339405688,
  "lat": 68.9393770,
  "lon": 20.0268506,
  "tags": {
    "capacity": "33",
    "dnt:classification": "ubetjent",
    "dnt:iid": "96",
    "dnt:lock": "yes",
    "ele": "465",
    "idrettsanleggregisteret:iid": "1924002401",
    "name": "Rostahytta",
    "network": "Den Norske Turistforening",
    "operator": "DNT Oslo og Omegn",
    "owner": "Den Norske Turistforening",
    "ref:kartverket:hytte": "1111",
    "tourism": "wilderness_hut",
    "website": "https://ut.no/hytte/rostahytta"
  }
},
{
  "type": "node",
  "id": 339405721,
  "lat": 68.7637401,
  "lon": 19.7202386,
  "tags": {
    "amenity": "shelter",
    "dnt:classification": "nødbu",
    "dnt:iid": "276",
    "dnt:lock": "yes",
    "ele": "225",
    "name": "Ventebu",
    "network": "Den Norske Turistforening",
    "operator": "Troms Turlag",
    "shelter_type": "basic_hut",
    "source:date": "2010-12-13 17:30:19",
    "website": "https://ut.no/hytte/ventebu"
  }
},
{
  "type": "node",
  "id": 339409572,
  "lat": 68.5531041,
  "lon": 18.1867093,
  "tags": {
    "capacity": "8",
    "dnt:classification": "ubetjent",
    "dnt:iid": "274",
    "dnt:lock": "yes",
    "ele": "478",
    "name": "Stordalsstua",
    "network": "Den Norske Turistforening",
    "operator": "Troms Turlag",
    "ref:kartverket:hytte": "1372",
    "tourism": "wilderness_hut",
    "website": "https://ut.no/hytte/stordalsstua"
  }
},
{
  "type": "node",
  "id": 339409574,
  "lat": 68.3182446,
  "lon": 17.8992917,
  "tags": {
    "capacity": "14",
    "dnt:classification": "ubetjent",
    "dnt:iid": "323",
    "dnt:lock": "yes",
    "ele": "700",
    "name": "Hundalshytta",
    "network": "Den Norske Turistforening",
    "operator": "Narvik og Omegn Turistforening",
    "ref:kartverket:hytte": "1265",
    "tourism": "wilderness_hut",
    "website": "https://ut.no/hytte/hundalshytta"
  }
},
{
  "type": "node",
  "id": 339409575,
  "lat": 68.2936571,
  "lon": 17.9979207,
  "tags": {
    "alt_name": "Kvilebua",
    "amenity": "shelter",
    "dnt:classification": "nødbu",
    "dnt:iid": "324",
    "dnt:lock": "yes",
    "ele": "855",
    "name": "Oallavagge",
    "network": "Den Norske Turistforening",
    "operator": "Narvik og Omegn Turistforening",
    "ref:kartverket:hytte": "1266",
    "shelter_type": "basic_hut",
    "website": "https://ut.no/hytte/oallavagge"
  }
},
{
  "type": "node",
  "id": 339409576,
  "lat": 68.1990361,
  "lon": 17.9633871,
  "tags": {
    "capacity": "4",
    "dnt:classification": "ubetjent",
    "dnt:iid": "329",
    "dnt:lock": "yes",
    "ele": "990",
    "name": "Storsteinshytta",
    "network": "Den Norske Turistforening",
    "operator": "Narvik og Omegn Turistforening",
    "ref:kartverket:hytte": "1271",
    "tourism": "wilderness_hut",
    "website": "https://ut.no/hytte/storsteinshytta"
  }
},
{
  "type": "node",
  "id": 339409578,
  "lat": 68.1189329,
  "lon": 17.9479960,
  "tags": {
    "capacity": "14",
    "dnt:classification": "ubetjent",
    "dnt:iid": "320",
    "dnt:lock": "yes",
    "ele": "1010",
    "name": "Cáihnavággihytta",
    "network": "Den Norske Turistforening",
    "operator": "Narvik og Omegn Turistforening",
    "ref:kartverket:hytte": "1262",
    "tourism": "wilderness_hut",
    "website": "https://ut.no/hytte/c%C3%A1ihnav%C3%A1ggihytta"
  }
},
{
  "type": "node",
  "id": 339409580,
  "lat": 68.1901463,
  "lon": 17.7845141,
  "tags": {
    "alt_name": "Lossihytta",
    "capacity": "10",
    "dnt:classification": "ubetjent",
    "dnt:iid": "80",
    "dnt:lock": "yes",
    "ele": "720",
    "name": "Losistua",
    "network": "Den Norske Turistforening",
    "operator": "DNT Oslo og Omegn",
    "ref:kartverket:hytte": "1093",
    "tourism": "wilderness_hut",
    "website": "https://ut.no/hytte/losistua"
  }
},
{
  "type": "node",
  "id": 339409581,
  "lat": 68.0588072,
  "lon": 17.5926033,
  "tags": {
    "capacity": "12",
    "dnt:classification": "ubetjent",
    "dnt:iid": "328",
    "dnt:lock": "yes",
    "ele": "1020",
    "name": "Skoaddejávre",
    "network": "Den Norske Turistforening",
    "operator": "Narvik og Omegn Turistforening",
    "ref:kartverket:hytte": "1270",
    "tourism": "wilderness_hut",
    "website": "https://ut.no/hytte/skoaddej%C3%A1vre"
  }
},
{
  "type": "node",
  "id": 339409582,
  "lat": 68.1005820,
  "lon": 17.2347661,
  "tags": {
    "capacity": "8",
    "dnt:classification": "ubetjent",
    "dnt:iid": "327",
    "dnt:lock": "yes",
    "ele": "630",
    "name": "Sitashytta",
    "network": "Den Norske Turistforening",
    "operator": "Narvik og Omegn Turistforening",
    "ref:kartverket:hytte": "1269",
    "tourism": "wilderness_hut",
    "website": "https://ut.no/hytte/sitashytta"
  }
},
{
  "type": "node",
  "id": 339409583,
  "lat": 68.0489365,
  "lon": 17.0316185,
  "tags": {
    "capacity": "12",
    "dnt:classification": "ubetjent",
    "dnt:iid": "325",
    "dnt:lock": "yes",
    "ele": "695",
    "name": "Paurohytta",
    "network": "Den Norske Turistforening",
    "operator": "Narvik og Omegn Turistforening",
    "source:date": "2011-05-25 11:47:11",
    "tourism": "wilderness_hut",
    "website": "https://ut.no/hytte/paurohytta"
  }
},
{
  "type": "node",
  "id": 339412453,
  "lat": 68.5635421,
  "lon": 17.2332339,
  "tags": {
    "capacity": "7",
    "dnt:classification": "ubetjent",
    "dnt:iid": "400",
    "dnt:lock": "yes",
    "ele": "110",
    "name": "Skoddeberghytta",
    "network": "Den Norske Turistforening",
    "operator": "Harstad Turlag",
    "ref:kartverket:hytte": "1184",
    "tourism": "wilderness_hut",
    "website": "https://ut.no/hytte/skoddeberghytta"
  }
},
{
  "type": "node",
  "id": 339595788,
  "lat": 68.5709003,
  "lon": 17.0132008,
  "tags": {
    "capacity": "10",
    "dnt:classification": "ubetjent",
    "dnt:iid": "399",
    "dnt:lock": "yes",
    "ele": "570",
    "name": "Blåvatnhytta",
    "network": "Den Norske Turistforening",
    "operator": "Harstad Turlag",
    "ref:kartverket:hytte": "1180",
    "tourism": "wilderness_hut",
    "website": "https://ut.no/hytte/blaavatnhytta"
  }
},
{
  "type": "node",
  "id": 339595789,
  "lat": 68.7614982,
  "lon": 16.5196442,
  "tags": {
    "capacity": "4",
    "dnt:classification": "ubetjent",
    "dnt:iid": "398",
    "dnt:lock": "yes",
    "ele": "320",
    "name": "Maistua",
    "network": "Den Norske Turistforening",
    "operator": "Harstad Turlag",
    "ref:kartverket:hytte": "1183",
    "tourism": "wilderness_hut",
    "website": "https://ut.no/hytte/maistua"
  }
},
{
  "type": "node",
  "id": 339595790,
  "lat": 68.6583336,
  "lon": 16.3896615,
  "tags": {
    "capacity": "12",
    "dnt:classification": "ubetjent",
    "dnt:iid": "395",
    "dnt:lock": "yes",
    "ele": "210",
    "name": "Bjørnhaugen",
    "network": "Den Norske Turistforening",
    "operator": "Harstad Turlag",
    "ref:kartverket:hytte": "1179",
    "tourism": "wilderness_hut",
    "website": "https://ut.no/hytte/bjoernhaugen"
  }
},
{
  "type": "node",
  "id": 339595793,
  "lat": 68.5943663,
  "lon": 16.0650630,
  "tags": {
    "capacity": "4",
    "dnt:classification": "ubetjent",
    "dnt:iid": "397",
    "dnt:lock": "yes",
    "ele": "522",
    "name": "Haakonsbu",
    "network": "Den Norske Turistforening",
    "operator": "Harstad Turlag",
    "ref:kartverket:hytte": "1182",
    "tourism": "wilderness_hut",
    "website": "https://ut.no/hytte/haakonsbu"
  }
},
{
  "type": "node",
  "id": 339595794,
  "lat": 68.6349622,
  "lon": 16.0473736,
  "tags": {
    "capacity": "8",
    "dnt:classification": "ubetjent",
    "dnt:iid": "396",
    "dnt:lock": "yes",
    "ele": "20",
    "name": "Fossestua",
    "network": "Den Norske Turistforening",
    "operator": "Harstad Turlag",
    "ref:kartverket:hytte": "1181",
    "tourism": "wilderness_hut",
    "website": "https://ut.no/hytte/fossestua"
  }
},
{
  "type": "node",
  "id": 339595795,
  "lat": 68.7048958,
  "lon": 15.7523517,
  "tags": {
    "capacity": "5",
    "dnt:classification": "ubetjent",
    "dnt:iid": "246",
    "dnt:lock": "yes",
    "ele": "190",
    "name": "Ingemannhytta",
    "network": "Den Norske Turistforening",
    "operator": "Vesterålen Turlag",
    "ref:kartverket:hytte": "1399",
    "tourism": "wilderness_hut",
    "website": "https://ut.no/hytte/ingemannhytta"
  }
},
{
  "type": "node",
  "id": 339595796,
  "lat": 68.5640545,
  "lon": 15.5755530,
  "tags": {
    "capacity": "14",
    "dnt:classification": "ubetjent",
    "dnt:iid": "247",
    "dnt:lock": "yes",
    "ele": "390",
    "name": "Snytindhytta",
    "network": "Den Norske Turistforening",
    "operator": "Vesterålen Turlag",
    "ref:kartverket:hytte": "1400",
    "tourism": "wilderness_hut",
    "website": "https://ut.no/hytte/snytindhytta"
  }
},
{
  "type": "node",
  "id": 339595798,
  "lat": 68.0359200,
  "lon": 13.0751658,
  "tags": {
    "capacity": "9",
    "dnt:classification": "ubetjent",
    "dnt:iid": "341",
    "dnt:lock": "yes",
    "ele": "30",
    "name": "Selfjordhytta",
    "network": "Den Norske Turistforening",
    "operator": "Lofoten Turlag",
    "ref:kartverket:hytte": "1252",
    "tourism": "wilderness_hut",
    "website": "https://ut.no/hytte/selfjordhytta"
  }
},
{
  "type": "node",
  "id": 339599364,
  "lat": 67.1401726,
  "lon": 16.1368391,
  "tags": {
    "capacity": "26",
    "dnt:classification": "ubetjent",
    "dnt:iid": "285",
    "dnt:lock": "yes",
    "ele": "580",
    "name": "Ny-Sulitjelma fjellstue (Hanken)",
    "network": "Den Norske Turistforening",
    "operator": "Sulitjelma og Omegn Turistforening",
    "ref:kartverket:hytte": "1357",
    "tourism": "wilderness_hut",
    "website": "https://ut.no/hytte/ny-sulitjelma-fjellstue"
  }
},
{
  "type": "node",
  "id": 339599365,
  "lat": 67.1236209,
  "lon": 16.2036218,
  "tags": {
    "capacity": "4",
    "dnt:classification": "ubetjent",
    "dnt:iid": "283",
    "dnt:lock": "yes",
    "ele": "715",
    "name": "Lomihytta",
    "network": "Den Norske Turistforening",
    "operator": "Sulitjelma og Omegn Turistforening",
    "ref:kartverket:hytte": "1355",
    "tourism": "wilderness_hut",
    "website": "https://ut.no/hytte/lomihytta"
  }
},
{
  "type": "node",
  "id": 339599366,
  "lat": 67.0542970,
  "lon": 16.3724255,
  "tags": {
    "capacity": "8",
    "dnt:classification": "ubetjent",
    "dnt:iid": "284",
    "dnt:lock": "yes",
    "ele": "720",
    "name": "Muorkihytta",
    "network": "Den Norske Turistforening",
    "operator": "Sulitjelma og Omegn Turistforening",
    "ref:kartverket:hytte": "1356",
    "tourism": "wilderness_hut",
    "website": "https://ut.no/hytte/muorkihytta"
  }
},
{
  "type": "node",
  "id": 339599367,
  "lat": 67.0540414,
  "lon": 16.0945186,
  "tags": {
    "alt_name": "Calalveshytta",
    "capacity": "25",
    "dnt:classification": "ubetjent",
    "dnt:iid": "280",
    "dnt:lock": "yes",
    "ele": "560",
    "name": "Tjalalveshytta",
    "network": "Den Norske Turistforening",
    "operator": "Sulitjelma og Omegn Turistforening",
    "ref:kartverket:hytte": "1353",
    "tourism": "wilderness_hut",
    "website": "https://ut.no/hytte/calalveshytta"
  }
},
{
  "type": "node",
  "id": 339599368,
  "lat": 67.1878308,
  "lon": 14.4267132,
  "tags": {
    "capacity": "34",
    "dnt:classification": "ubetjent",
    "dnt:iid": "367",
    "dnt:lock": "yes",
    "ele": "40",
    "name": "Gjælentunet",
    "network": "Den Norske Turistforening",
    "operator": "Bodø og Omegns Turistforening",
    "source:date": "2011-06-08 09:32:07",
    "tourism": "wilderness_hut",
    "website": "https://ut.no/hytte/gjaelentunet"
  }
},
{
  "type": "node",
  "id": 339599369,
  "lat": 67.0018938,
  "lon": 14.9485669,
  "tags": {
    "capacity": "23",
    "dnt:classification": "ubetjent",
    "dnt:iid": "375",
    "dnt:lock": "yes",
    "ele": "555",
    "name": "Tverrbrennstua",
    "network": "Den Norske Turistforening",
    "operator": "Bodø og Omegns Turistforening",
    "ref:kartverket:hytte": "1049",
    "tourism": "wilderness_hut",
    "website": "https://ut.no/hytte/tverrbrennstua"
  }
},
{
  "type": "node",
  "id": 339599370,
  "lat": 66.9359408,
  "lon": 15.2365214,
  "tags": {
    "alt_name": "Jordbruhytta",
    "capacity": "8",
    "dnt:classification": "ubetjent",
    "dnt:iid": "368",
    "dnt:lock": "yes",
    "ele": "325",
    "name": "Jordbruhytta",
    "network": "Den Norske Turistforening",
    "operator": "Bodø og Omegns Turistforening",
    "ref:kartverket:hytte": "1042",
    "service": "no",
    "tourism": "wilderness_hut",
    "website": "https://ut.no/hytte/jordbruhytta"
  }
},
{
  "type": "node",
  "id": 339599371,
  "lat": 66.8494461,
  "lon": 15.0456599,
  "tags": {
    "capacity": "29",
    "dnt:classification": "ubetjent",
    "dnt:iid": "334",
    "dnt:lock": "yes",
    "ele": "720",
    "name": "Bjellåvasstua",
    "network": "Den Norske Turistforening",
    "operator": "Bodø og Omegns Turistforening",
    "ref:kartverket:hytte": "1038",
    "tourism": "wilderness_hut",
    "website": "https://ut.no/hytte/bjellaavasstua"
  }
},
{
  "type": "node",
  "id": 339599373,
  "lat": 66.8005523,
  "lon": 15.6888647,
  "tags": {
    "capacity": "20",
    "dnt:classification": "ubetjent",
    "dnt:iid": "374",
    "dnt:lock": "yes",
    "ele": "420",
    "name": "Trygvebu",
    "network": "Den Norske Turistforening",
    "operator": "Bodø og Omegns Turistforening",
    "ref:kartverket:hytte": "1048",
    "tourism": "wilderness_hut",
    "website": "https://ut.no/hytte/trygvebu"
  }
},
{
  "type": "node",
  "id": 339599374,
  "lat": 66.7360225,
  "lon": 15.4656190,
  "tags": {
    "alt_name": "Lønsstua",
    "capacity": "30",
    "dnt:classification": "ubetjent",
    "dnt:iid": "371",
    "dnt:lock": "yes",
    "ele": "475",
    "name": "Lønsstua",
    "network": "Den Norske Turistforening",
    "operator": "Bodø og Omegns Turistforening",
    "ref:kartverket:hytte": "1045",
    "tourism": "wilderness_hut",
    "website": "https://ut.no/hytte/loensstua"
  }
},
{
  "type": "node",
  "id": 339599375,
  "lat": 66.7608134,
  "lon": 15.0129592,
  "tags": {
    "capacity": "16",
    "dnt:classification": "ubetjent",
    "dnt:iid": "372",
    "dnt:lock": "yes",
    "ele": "710",
    "name": "Midtistua",
    "network": "Den Norske Turistforening",
    "operator": "Bodø og Omegns Turistforening",
    "ref:kartverket:hytte": "1046",
    "tourism": "wilderness_hut",
    "website": "https://ut.no/hytte/midtistua"
  }
},
{
  "type": "node",
  "id": 339599376,
  "lat": 66.7149655,
  "lon": 15.0259014,
  "tags": {
    "capacity": "20",
    "dnt:classification": "ubetjent",
    "dnt:iid": "305",
    "dnt:lock": "yes",
    "ele": "610",
    "name": "Saltfjellstua",
    "network": "Den Norske Turistforening",
    "operator": "Rana Turistforening",
    "ref:kartverket:hytte": "1291",
    "tourism": "wilderness_hut",
    "website": "https://ut.no/hytte/saltfjellstua"
  }
},
{
  "type": "node",
  "id": 339599377,
  "lat": 66.6788792,
  "lon": 15.0490779,
  "tags": {
    "capacity": "8",
    "dnt:classification": "ubetjent",
    "dnt:iid": "369",
    "dnt:lock": "yes",
    "ele": "520",
    "name": "Krukkistua",
    "network": "Den Norske Turistforening",
    "operator": "Rana Turistforening",
    "ref:kartverket:hytte": "1043",
    "tourism": "wilderness_hut",
    "website": "https://ut.no/hytte/krukkistua"
  }
},
{
  "type": "node",
  "id": 339600585,
  "lat": 66.5454807,
  "lon": 14.4009758,
  "tags": {
    "capacity": "12",
    "dnt:classification": "ubetjent",
    "dnt:iid": "298",
    "dnt:lock": "yes",
    "ele": "486",
    "name": "Blakkådalshytta",
    "network": "Den Norske Turistforening",
    "operator": "Rana Turistforening",
    "ref:kartverket:hytte": "1284",
    "tourism": "wilderness_hut",
    "website": "https://ut.no/hytte/blakkaadalshytta"
  }
},
{
  "type": "node",
  "id": 339600587,
  "lat": 66.4924338,
  "lon": 15.2379836,
  "tags": {
    "capacity": "13",
    "dnt:classification": "ubetjent",
    "dnt:iid": "299",
    "dnt:lock": "yes",
    "ele": "540",
    "fixme": "service=no or self?",
    "name": "Bolnastua",
    "network": "Den Norske Turistforening",
    "operator": "Rana Turistforening",
    "ref:kartverket:hytte": "1285",
    "tourism": "wilderness_hut",
    "website": "https://ut.no/hytte/bolnastua"
  }
},
{
  "type": "node",
  "id": 339600588,
  "lat": 66.3511103,
  "lon": 15.3733520,
  "tags": {
    "amenity": "shelter",
    "dnt:classification": "nødbu",
    "dnt:iid": "300",
    "dnt:lock": "yes",
    "ele": "940",
    "name": "Corraskoia (Daumannselvkoia)",
    "network": "Den Norske Turistforening",
    "operator": "Rana Turistforening",
    "ref:kartverket:hytte": "1286",
    "shelter_type": "basic_hut",
    "website": "https://ut.no/hytte/corraskoia"
  }
},
{
  "type": "node",
  "id": 339600589,
  "lat": 66.3085612,
  "lon": 15.3646462,
  "tags": {
    "capacity": "16",
    "dnt:classification": "ubetjent",
    "dnt:iid": "308",
    "dnt:lock": "yes",
    "ele": "650",
    "name": "Virvasshytta",
    "network": "Den Norske Turistforening",
    "operator": "Rana Turistforening",
    "ref:kartverket:hytte": "1293",
    "tourism": "wilderness_hut",
    "website": "https://ut.no/hytte/virvasshytta"
  }
},
{
  "type": "node",
  "id": 339602307,
  "lat": 66.1840932,
  "lon": 15.0515441,
  "tags": {
    "capacity": "10",
    "dnt:classification": "ubetjent",
    "dnt:iid": "303",
    "dnt:lock": "yes",
    "ele": "585",
    "name": "Kvitsteindalstunet",
    "network": "Den Norske Turistforening",
    "operator": "Rana Turistforening",
    "ref:kartverket:hytte": "1289",
    "tourism": "wilderness_hut",
    "website": "https://ut.no/hytte/kvitsteindalstunet"
  }
},
{
  "type": "node",
  "id": 339602316,
  "lat": 66.0656537,
  "lon": 14.2612302,
  "tags": {
    "capacity": "15",
    "dnt:classification": "ubetjent",
    "dnt:iid": "414",
    "dnt:lock": "yes",
    "ele": "530",
    "name": "Kjennsvasshytta",
    "network": "Den Norske Turistforening",
    "operator": "Hemnes Turistforening",
    "ref:kartverket:hytte": "1199",
    "tourism": "wilderness_hut",
    "website": "https://ut.no/hytte/kjennsvasshytta"
  }
},
{
  "type": "node",
  "id": 339602318,
  "lat": 66.0479925,
  "lon": 14.4240133,
  "tags": {
    "capacity": "14",
    "dnt:classification": "ubetjent",
    "dnt:iid": "412",
    "dnt:lock": "yes",
    "ele": "633",
    "name": "Gressvasshytta",
    "network": "Den Norske Turistforening",
    "operator": "Hemnes Turistforening",
    "ref:kartverket:hytte": "1197",
    "tourism": "wilderness_hut",
    "website": "https://ut.no/hytte/gressvasshytta",
    "wikidata": "Q134006782"
  }
},
{
  "type": "node",
  "id": 339602320,
  "lat": 66.0072176,
  "lon": 14.0999173,
  "tags": {
    "alt_name": "Steinbua, Okstindan",
    "amenity": "shelter",
    "dnt:classification": "nødbu",
    "dnt:iid": "415",
    "dnt:lock": "yes",
    "ele": "907",
    "name": "Steinbua",
    "network": "Den Norske Turistforening",
    "operator": "Hemnes Turistforening",
    "ref:kartverket:hytte": "1200",
    "shelter_type": "basic_hut",
    "website": "https://ut.no/hytte/steinbua"
  }
},
{
  "type": "node",
  "id": 339602322,
  "lat": 65.9879334,
  "lon": 14.0530404,
  "tags": {
    "capacity": "11",
    "dnt:classification": "ubetjent",
    "dnt:iid": "413",
    "dnt:lock": "yes",
    "ele": "1008",
    "name": "Gråfjellhytta",
    "network": "Den Norske Turistforening",
    "operator": "Hemnes Turistforening",
    "ref:kartverket:hytte": "1198",
    "tourism": "wilderness_hut",
    "website": "https://ut.no/hytte/graafjellhytta"
  }
},
{
  "type": "node",
  "id": 339607867,
  "lat": 61.7562897,
  "lon": 9.9793564,
  "tags": {
    "capacity": "18",
    "dnt:classification": "selvbetjent",
    "dnt:iid": "27",
    "dnt:lock": "yes",
    "ele": "1005",
    "name": "Eldåbu",
    "network": "Den Norske Turistforening",
    "operator": "DNT Oslo og Omegn",
    "provisions": "yes",
    "ref:kartverket:hytte": "1059",
    "service": "self",
    "tourism": "wilderness_hut",
    "website": "https://ut.no/hytte/101363/eldabu"
  }
},
{
  "type": "node",
  "id": 339607871,
  "lat": 61.9123422,
  "lon": 10.3694441,
  "tags": {
    "capacity": "6",
    "dnt:classification": "selvbetjent",
    "dnt:iid": "111",
    "dnt:lock": "yes",
    "ele": "850",
    "name": "Storgrytdalseter",
    "network": "Den Norske Turistforening",
    "operator": "DNT Oslo og Omegn",
    "provisions": "yes",
    "ref:kartverket:hytte": "1129",
    "tourism": "wilderness_hut",
    "website": "https://ut.no/hytte/storgrytdalseter"
  }
},
{
  "type": "node",
  "id": 339607872,
  "lat": 61.9747860,
  "lon": 10.4438233,
  "tags": {
    "capacity": "13",
    "dnt:classification": "selvbetjent",
    "dnt:iid": "74",
    "dnt:lock": "yes",
    "ele": "1250",
    "name": "Korsberghytta",
    "network": "Den Norske Turistforening",
    "operator": "DNT Oslo og Omegn",
    "provisions": "yes",
    "ref:kartverket:hytte": "1088",
    "tourism": "wilderness_hut",
    "website": "https://ut.no/hytte/10720"
  }
},
{
  "type": "node",
  "id": 339607875,
  "lat": 62.2238852,
  "lon": 10.9558089,
  "tags": {
    "capacity": "7",
    "dnt:classification": "selvbetjent",
    "dnt:iid": "72",
    "dnt:lock": "yes",
    "ele": "718",
    "name": "Knausen",
    "network": "Den Norske Turistforening",
    "operator": "DNT Oslo og Omegn",
    "provisions": "yes",
    "ref:kartverket:hytte": "1085",
    "tourism": "wilderness_hut",
    "website": "https://ut.no/hytte/knausen"
  }
},
{
  "type": "node",
  "id": 339607876,
  "lat": 62.2151525,
  "lon": 11.1503760,
  "tags": {
    "capacity": "15",
    "dnt:classification": "selvbetjent",
    "dnt:iid": "90",
    "dnt:lock": "yes",
    "ele": "899",
    "name": "Raudsjødalen",
    "network": "Den Norske Turistforening",
    "operator": "DNT Oslo og Omegn",
    "provisions": "yes",
    "ref:kartverket:hytte": "1106",
    "tourism": "wilderness_hut",
    "website": "https://ut.no/hytte/raudsjoedalen"
  }
},
{
  "type": "node",
  "id": 339607877,
  "lat": 62.2044651,
  "lon": 11.4482470,
  "tags": {
    "capacity": "12",
    "dnt:classification": "selvbetjent",
    "dnt:iid": "28",
    "dnt:lock": "yes",
    "ele": "715",
    "name": "Ellefsplass",
    "network": "Den Norske Turistforening",
    "operator": "DNT Oslo og Omegn",
    "provisions": "yes",
    "ref:kartverket:hytte": "1060",
    "tourism": "wilderness_hut",
    "website": "https://ut.no/hytte/ellefsplass"
  }
},
{
  "type": "node",
  "id": 339607878,
  "lat": 62.2470669,
  "lon": 11.7621820,
  "tags": {
    "capacity": "20",
    "dnt:classification": "selvbetjent",
    "dnt:iid": "119",
    "ele": "675",
    "name": "Sæter",
    "network": "Den Norske Turistforening",
    "provisions": "yes",
    "ref:kartverket:hytte": "1453",
    "tourism": "wilderness_hut",
    "website": "http://ut.no/hytte/saeter-%28saether%29"
  }
},
{
  "type": "node",
  "id": 339607880,
  "lat": 62.4301330,
  "lon": 11.4110246,
  "tags": {
    "capacity": "6",
    "dnt:classification": "selvbetjent",
    "dnt:iid": "443",
    "dnt:lock": "yes",
    "ele": "700",
    "name": "Narjordet",
    "network": "Den Norske Turistforening",
    "operator": "DNT Oslo og Omegn",
    "provisions": "yes",
    "ref:kartverket:hytte": "1100",
    "tourism": "wilderness_hut",
    "website": "https://ut.no/hytte/narjordet"
  }
},
{
  "type": "node",
  "id": 343508885,
  "lat": 59.7862478,
  "lon": 10.3763258,
  "tags": {
    "capacity": "4",
    "dnt:classification": "ubetjent",
    "dnt:iid": "1526",
    "dnt:lock": "yes",
    "ele": "250",
    "name": "Småvannsbu",
    "network": "Den Norske Turistforening",
    "operator": "DNT Oslo og Omegn",
    "ref:kartverket:hytte": "1458",
    "supervisor": "DNT Oslo og Omegn;Asker Turlag",
    "tourism": "wilderness_hut",
    "website": "https://ut.no/hytte/smaavannsbu"
  }
},
{
  "type": "node",
  "id": 365243462,
  "lat": 62.0478284,
  "lon": 12.2195270,
  "tags": {
    "access": "yes",
    "amenity": "shelter",
    "name": "Gammeldalen",
    "tourism": "wilderness_hut"
  }
},
{
  "type": "node",
  "id": 370833477,
  "lat": 58.9673226,
  "lon": 5.6551756,
  "tags": {
    "amenity": "shelter",
    "fireplace": "yes",
    "name": "Speidermarka"
  }
},
{
  "type": "node",
  "id": 377149881,
  "lat": 62.9263702,
  "lon": 9.3466010,
  "tags": {
    "amenity": "shelter",
    "name": "Løa"
  }
},
{
  "type": "node",
  "id": 384929975,
  "lat": 59.8329676,
  "lon": 10.4803416,
  "tags": {
    "amenity": "shelter"
  }
},
{
  "type": "node",
  "id": 410626853,
  "lat": 58.9262075,
  "lon": 5.8515297,
  "tags": {
    "amenity": "shelter",
    "highway": "bus_stop",
    "name": "Riska gamle kirke",
    "ref:nsrq": "44804",
    "shelter_type": "public_transport"
  }
},
{
  "type": "node",
  "id": 410653214,
  "lat": 59.8834442,
  "lon": 10.0327338,
  "tags": {
    "capacity": "8",
    "dnt:classification": "ubetjent",
    "dnt:iid": "135",
    "dnt:lock": "yes",
    "ele": "433",
    "name": "Svarvestolen",
    "network": "Den Norske Turistforening",
    "operator": "Drammens og Oplands Turistforening",
    "ref:kartverket:hytte": "1156",
    "supervisor": "DOT",
    "tourism": "wilderness_hut",
    "website": "https://ut.no/hytte/svarvestolen"
  }
},
{
  "type": "node",
  "id": 416380027,
  "lat": 59.8318302,
  "lon": 5.7182113,
  "tags": {
    "amenity": "shelter",
    "shelter_type": "public_transport"
  }
},
{
  "type": "node",
  "id": 435645532,
  "lat": 59.4476299,
  "lon": 5.3679923,
  "tags": {
    "amenity": "shelter",
    "name": "Håvåshytta"
  }
},
{
  "type": "node",
  "id": 441071739,
  "lat": 64.8890084,
  "lon": 13.9287692,
  "tags": {
    "amenity": "shelter"
  }
},
{
  "type": "node",
  "id": 443469803,
  "lat": 62.4385232,
  "lon": 8.6140648,
  "tags": {
    "amenity": "shelter",
    "fireplace": "yes",
    "name": "Vikseterplassen villmarksleir"
  }
},
{
  "type": "node",
  "id": 443615466,
  "lat": 62.7700609,
  "lon": 7.1029445,
  "tags": {
    "amenity": "shelter",
    "fireplace": "yes",
    "shelter_type": "lean_to"
  }
},
{
  "type": "node",
  "id": 444899477,
  "lat": 60.7770989,
  "lon": 7.7011667,
  "tags": {
    "capacity": "12",
    "dnt:classification": "selvbetjent",
    "dnt:iid": "73",
    "dnt:lock": "yes",
    "ele": "1466",
    "fee": "yes",
    "name": "Kongshelleren",
    "network": "Den Norske Turistforening",
    "operator": "DNT Oslo og Omegn",
    "provisions": "yes",
    "ref:kartverket:hytte": "1087",
    "supervisor": "DNT Oslo og Omegn",
    "tourism": "wilderness_hut",
    "website": "https://ut.no/hytte/10811/kongshelleren"
  }
},
{
  "type": "node",
  "id": 448478795,
  "lat": 59.9829633,
  "lon": 7.2151591,
  "tags": {
    "capacity": "26",
    "dnt:classification": "selvbetjent",
    "dnt:iid": "65",
    "dnt:lock": "yes",
    "ele": "1175",
    "name": "Hellevassbu",
    "network": "Den Norske Turistforening",
    "operator": "DNT Oslo og Omegn",
    "provisions": "yes",
    "ref:kartverket:hytte": "1078",
    "service": "self",
    "tourism": "wilderness_hut",
    "website": "https://ut.no/hytte/hellevassbu"
  }
},
{
  "type": "node",
  "id": 448543406,
  "lat": 60.3184041,
  "lon": 6.8949293,
  "tags": {
    "capacity": "62",
    "dnt:classification": "selvbetjent",
    "dnt:iid": "155",
    "dnt:lock": "yes",
    "ele": "1007",
    "name": "Stavali",
    "network": "Den Norske Turistforening",
    "operator": "Bergen Turlag",
    "provisions": "yes",
    "ref:kartverket:hytte": "1031",
    "service": "self",
    "tourism": "wilderness_hut",
    "website": "https://ut.no/hytte/stavali"
  }
},
{
  "type": "node",
  "id": 448624959,
  "lat": 60.2113308,
  "lon": 7.0348754,
  "tags": {
    "capacity": "24",
    "dnt:classification": "selvbetjent",
    "dnt:iid": "121",
    "dnt:lock": "yes",
    "ele": "1330",
    "name": "Torehytten",
    "network": "Den Norske Turistforening",
    "operator": "DNT Oslo og Omegn",
    "provisions": "yes",
    "ref:bygningsnr": "174711046",
    "ref:kartverket:hytte": "1140",
    "service": "self",
    "tourism": "wilderness_hut",
    "website": "https://ut.no/hytte/10664"
  }
},
{
  "type": "node",
  "id": 449593214,
  "lat": 62.4943166,
  "lon": 11.9836987,
  "tags": {
    "amenity": "shelter",
    "name": "Ljøsnåvollen"
  }
},
{
  "type": "node",
  "id": 449593216,
  "lat": 62.4481817,
  "lon": 12.0521991,
  "tags": {
    "name": "Muggsjølia",
    "operator": "Statskog",
    "ref:kartverket:hytte": "5716",
    "tourism": "wilderness_hut"
  }
},
{
  "type": "node",
  "id": 449593217,
  "lat": 62.4321104,
  "lon": 12.1056668,
  "tags": {
    "amenity": "shelter",
    "building": "hut",
    "name": "Muggsjøbua",
    "operator": "Statskog",
    "owner": "Statskog",
    "ref:kartverket:hytte": "3156",
    "shelter_type": "basic_hut"
  }
},
{
  "type": "node",
  "id": 457085039,
  "lat": 61.4711366,
  "lon": 8.2742366,
  "tags": {
    "capacity": "40",
    "dnt:classification": "selvbetjent",
    "dnt:iid": "88",
    "dnt:lock": "yes",
    "ele": "1440",
    "name": "Olavsbu",
    "network": "Den Norske Turistforening",
    "operator": "DNT Oslo og Omegn",
    "provisions": "yes",
    "ref:kartverket:hytte": "1103",
    "tourism": "wilderness_hut",
    "website": "https://ut.no/hytte/olavsbu"
  }
},
{
  "type": "node",
  "id": 458970523,
  "lat": 64.4327517,
  "lon": 13.9210034,
  "tags": {
    "amenity": "shelter",
    "fireplace": "yes",
    "name": "Mururoa"
  }
},
{
  "type": "node",
  "id": 469413939,
  "lat": 63.3839258,
  "lon": 10.3952387,
  "tags": {
    "amenity": "shelter"
  }
},
{
  "type": "node",
  "id": 481623261,
  "lat": 59.1317879,
  "lon": 7.2504501,
  "tags": {
    "capacity": "20",
    "dnt:classification": "selvbetjent",
    "dnt:iid": "427",
    "dnt:lock": "yes",
    "idrettsanleggregisteret:iid": "0940002001",
    "name": "Svartenut",
    "network": "Den Norske Turistforening",
    "operator": "DNT Sør",
    "owner": "Kristiansand og Opplands Turistforening",
    "provisions": "yes",
    "ref:kartverket:hytte": "1218",
    "tourism": "wilderness_hut",
    "website": "https://ut.no/hytte/svartenut"
  }
},
{
  "type": "node",
  "id": 499697689,
  "lat": 59.2530342,
  "lon": 9.5077264,
  "tags": {
    "amenity": "shelter",
    "name": "Brynhildsbu",
    "ref:kartverket:hytte": "9999",
    "shelter_type": "basic_hut"
  }
},
{
  "type": "node",
  "id": 502874906,
  "lat": 60.0505313,
  "lon": 10.7570937,
  "tags": {
    "capacity": "15",
    "dnt:classification": "selvbetjent",
    "dnt:iid": "1286",
    "ele": "465",
    "name": "Sellanrå",
    "network": "Den Norske Turistforening",
    "operator": "Friluftsklubben",
    "provisions": "yes",
    "ref:kartverket:hytte": "5587",
    "tourism": "wilderness_hut",
    "website": "https://www.friluftsklubben.no/Sellanraa.html"
  }
},
{
  "type": "node",
  "id": 503046210,
  "lat": 65.5610074,
  "lon": 14.2949363,
  "tags": {
    "amenity": "shelter"
  }
},
{
  "type": "node",
  "id": 503344075,
  "lat": 63.3840824,
  "lon": 10.2347890,
  "tags": {
    "amenity": "shelter",
    "name": "Bjørkhylla",
    "shelter_type": "lean_to"
  }
},
{
  "type": "node",
  "id": 504715629,
  "lat": 62.5749928,
  "lon": 9.7051320,
  "tags": {
    "amenity": "shelter",
    "name": "Kåsrandin"
  }
},
{
  "type": "node",
  "id": 504739217,
  "lat": 58.9522965,
  "lon": 5.7334590,
  "tags": {
    "amenity": "shelter",
    "note": "Shelter for smokers. Yay :)"
  }
},
{
  "type": "node",
  "id": 530783833,
  "lat": 59.9478038,
  "lon": 10.5621885,
  "tags": {
    "capacity": "62",
    "dnt:classification": "ubetjent",
    "dnt:iid": "1371",
    "dnt:lock": "yes",
    "ele": "180",
    "name": "Sæteren gård",
    "network": "Den Norske Turistforening",
    "operator": "DNT Oslo og Omegn",
    "ref:kartverket:hytte": "1137",
    "tourism": "wilderness_hut",
    "website": "https://ut.no/hytte/saeteren-gaard"
  }
},
{
  "type": "node",
  "id": 534318563,
  "lat": 58.1046053,
  "lon": 6.7458825,
  "tags": {
    "amenity": "shelter",
    "name": "Gapahuk",
    "operator": "Statskog",
    "ref:kartverket:hytte": "3131",
    "shelter_type": "lean_to"
  }
},
{
  "type": "node",
  "id": 538028221,
  "lat": 58.8311053,
  "lon": 6.0589000,
  "tags": {
    "amenity": "shelter",
    "shelter_type": "picnic_shelter"
  }
},
{
  "type": "node",
  "id": 538028281,
  "lat": 58.8284612,
  "lon": 6.0753025,
  "tags": {
    "amenity": "shelter",
    "description": "Enormous boulder makes the roof of a natural 100m^2 shelter",
    "name": "Uburhedlaren",
    "opening_hours": "24/7",
    "tourism": "attraction"
  }
},
{
  "type": "node",
  "id": 559615140,
  "lat": 63.4329592,
  "lon": 10.2985392,
  "tags": {
    "amenity": "shelter",
    "covered": "yes",
    "name": "Dreiers minne",
    "tourism": "picnic_site",
    "wikipedia": "no:Dreiers minne"
  }
},
{
  "type": "node",
  "id": 563386752,
  "lat": 59.9430119,
  "lon": 10.5566286,
  "tags": {
    "amenity": "shelter",
    "name": "Løvehulen"
  }
},
{
  "type": "node",
  "id": 564123127,
  "lat": 60.0246601,
  "lon": 10.8400944,
  "tags": {
    "capacity": "14",
    "dnt:classification": "ubetjent",
    "dnt:iid": "1369",
    "dnt:lock": "yes",
    "ele": "405",
    "name": "Fjellvang",
    "network": "Den Norske Turistforening",
    "operator": "DNT Oslo og Omegn",
    "ref:kartverket:hytte": "1064",
    "supervisor": "DNT Oslo og Omegn",
    "tourism": "wilderness_hut",
    "website": "https://ut.no/hytte/10775/fjellvang"
  }
},
{
  "type": "node",
  "id": 565183073,
  "lat": 59.1050601,
  "lon": 5.8584797,
  "tags": {
    "amenity": "shelter"
  }
},
{
  "type": "node",
  "id": 568362712,
  "lat": 62.8619749,
  "lon": 7.3204374,
  "tags": {
    "amenity": "shelter",
    "shelter_type": "picnic_shelter"
  }
},
{
  "type": "node",
  "id": 582751791,
  "lat": 61.4895671,
  "lon": 9.5706895,
  "tags": {
    "amenity": "shelter",
    "name": "Haakon VII hytte",
    "shelter_type": "basic_hut"
  }
},
{
  "type": "node",
  "id": 583350016,
  "lat": 59.0298467,
  "lon": 7.1654068,
  "tags": {
    "capacity": "9",
    "dnt:classification": "ubetjent",
    "dnt:iid": "421",
    "dnt:lock": "yes",
    "name": "Håheller",
    "network": "Den Norske Turistforening",
    "operator": "DNT Sør",
    "ref:kartverket:hytte": "1212",
    "tourism": "wilderness_hut",
    "website": "https://ut.no/hytte/haaheller"
  }
},
{
  "type": "node",
  "id": 583350017,
  "lat": 59.1124629,
  "lon": 6.8765970,
  "tags": {
    "capacity": "30",
    "dnt:classification": "selvbetjent",
    "dnt:iid": "167",
    "dnt:lock": "yes",
    "ele": "770",
    "name": "Grautheller",
    "network": "Den Norske Turistforening",
    "operator": "Stavanger Turistforening",
    "provisions": "yes",
    "ref:kartverket:hytte": "1325",
    "tourism": "wilderness_hut",
    "website": "https://ut.no/hytte/grautheller"
  }
},
{
  "type": "node",
  "id": 583350661,
  "lat": 59.0125157,
  "lon": 6.4255708,
  "tags": {
    "capacity": "24",
    "dnt:classification": "ubetjent",
    "dnt:iid": "164",
    "dnt:lock": "yes",
    "ele": "50",
    "name": "Flørli turiststasjon",
    "network": "Den Norske Turistforening",
    "operator": "Stavanger Turistforening",
    "ref:kartverket:hytte": "1321",
    "tourism": "wilderness_hut",
    "website": "https://ut.no/hytte/floerli-turiststasjon"
  }
},
{
  "type": "node",
  "id": 613270417,
  "lat": 59.3527031,
  "lon": 7.0363400,
  "tags": {
    "capacity": "28",
    "dnt:classification": "selvbetjent",
    "dnt:iid": "170",
    "dnt:lock": "yes",
    "ele": "1111",
    "name": "Hovatn",
    "network": "Den Norske Turistforening",
    "operator": "Stavanger Turistforening",
    "provisions": "yes",
    "ref:kartverket:hytte": "1328",
    "tourism": "wilderness_hut",
    "website": "https://ut.no/hytte/hovatn"
  }
},
{
  "type": "node",
  "id": 613270454,
  "lat": 59.2804489,
  "lon": 6.9096350,
  "tags": {
    "capacity": "28",
    "dnt:classification": "selvbetjent",
    "dnt:iid": "184",
    "dnt:lock": "yes",
    "ele": "950",
    "name": "Storsteinen",
    "network": "Den Norske Turistforening",
    "note": "The emergency phone is a two way radio that links directlty with emergency services.",
    "operator": "Stavanger Turistforening",
    "provisions": "yes",
    "ref:kartverket:hytte": "1343",
    "tourism": "wilderness_hut",
    "website": "https://ut.no/hytte/storsteinen"
  }
},
{
  "type": "node",
  "id": 614382550,
  "lat": 58.7630410,
  "lon": 6.5776847,
  "tags": {
    "access": "permissive",
    "capacity": "11",
    "dnt:classification": "selvbetjent",
    "dnt:iid": "186",
    "ele": "530",
    "idrettsanleggregisteret:iid": "1046003801",
    "name": "Støle",
    "network": "Den Norske Turistforening",
    "operator": "Stavanger Turistforening",
    "owner": "Stavanger Turistforening",
    "provisions": "yes",
    "ref:kartverket:hytte": "1345",
    "service": "self",
    "tourism": "wilderness_hut",
    "website": "https://ut.no/hytte/stoele"
  }
},
{
  "type": "node",
  "id": 615917282,
  "lat": 60.2490509,
  "lon": 11.4318336,
  "tags": {
    "amenity": "shelter",
    "heating": "stove",
    "name": "Koia",
    "operator": "Jellum",
    "shelter_type": "basic_hut"
  }
},
{
  "type": "node",
  "id": 624177411,
  "lat": 60.3619108,
  "lon": 5.2679858,
  "tags": {
    "amenity": "shelter"
  }
},
{
  "type": "node",
  "id": 648544142,
  "lat": 61.5137995,
  "lon": 9.8035947,
  "tags": {
    "amenity": "shelter",
    "type": "lean-to"
  }
},
{
  "type": "node",
  "id": 648544243,
  "lat": 61.5177624,
  "lon": 9.8358332,
  "tags": {
    "amenity": "shelter",
    "shelter_type": "lean_to",
    "source": "GPS"
  }
},
{
  "type": "node",
  "id": 648816475,
  "lat": 61.4798636,
  "lon": 9.6180421,
  "tags": {
    "amenity": "shelter",
    "name": "Den nye Håkon VII hytte"
  }
},
{
  "type": "node",
  "id": 655117911,
  "lat": 60.0326259,
  "lon": 10.4126142,
  "tags": {
    "capacity": "10",
    "dnt:classification": "ubetjent",
    "dnt:iid": "520",
    "dnt:lock": "yes",
    "ele": "300",
    "name": "Myrseter",
    "network": "Den Norske Turistforening",
    "operator": "DNT Oslo og Omegn",
    "ref:kartverket:hytte": "1099",
    "tourism": "wilderness_hut",
    "website": "https://ut.no/hytte/myrseter"
  }
},
{
  "type": "node",
  "id": 655117913,
  "lat": 60.0554574,
  "lon": 10.4259841,
  "tags": {
    "capacity": "6",
    "dnt:classification": "ubetjent",
    "dnt:iid": "218",
    "dnt:lock": "yes",
    "ele": "410",
    "name": "Presthytta",
    "network": "Den Norske Turistforening",
    "operator": "DNT Oslo og Omegn",
    "ref:kartverket:hytte": "1105",
    "tourism": "wilderness_hut",
    "website": "https://ut.no/hytte/presthytta"
  }
},
{
  "type": "node",
  "id": 656136702,
  "lat": 60.0514999,
  "lon": 10.5497153,
  "tags": {
    "amenity": "cafe",
    "capacity": "9",
    "dnt:classification": "ubetjent",
    "dnt:iid": "221",
    "dnt:lock": "yes",
    "ele": "315",
    "name": "Smedmyrkoia",
    "network": "Den Norske Turistforening",
    "opening_hours": "Jan 20-Mar 03 Su 12:00-16:00",
    "operator": "DNT Oslo og Omegn",
    "ref:kartverket:hytte": "1122",
    "tourism": "wilderness_hut",
    "website": "https://ut.no/hytte/smedmyrkoia"
  }
},
{
  "type": "node",
  "id": 656508400,
  "lat": 59.4017495,
  "lon": 9.4247798,
  "tags": {
    "capacity": "7",
    "dnt:classification": "ubetjent",
    "dnt:iid": "198",
    "dnt:lock": "yes",
    "dog": "no",
    "ele": "594",
    "fee": "yes",
    "name": "Fugleleiken",
    "network": "Den Norske Turistforening",
    "operator": "Telemark Turistforening",
    "ref:kartverket:hytte": "1298",
    "tourism": "wilderness_hut",
    "website": "https://www.ut.no/hytte/3.2010/"
  }
},
{
  "type": "node",
  "id": 664773392,
  "lat": 62.6249570,
  "lon": 9.7557430,
  "tags": {
    "amenity": "shelter",
    "ele": "684.6",
    "name": "Guriberget",
    "shelter_type": "lean_to"
  }
},
{
  "type": "node",
  "id": 666788642,
  "lat": 60.5621375,
  "lon": 6.2423708,
  "tags": {
    "capacity": "28",
    "dnt:classification": "selvbetjent",
    "dnt:iid": "238",
    "dnt:lock": "yes",
    "ele": "900",
    "name": "Torfinnsheim",
    "network": "Den Norske Turistforening",
    "operator": "Voss Utferdslag",
    "provisions": "yes",
    "ref:kartverket:hytte": "1403",
    "supervisor": "Voss Utferdslag",
    "tourism": "wilderness_hut",
    "website": "https://ut.no/hytte/10428/torfinnsheim"
  }
},
{
  "type": "node",
  "id": 669984472,
  "lat": 62.5690227,
  "lon": 9.5904589,
  "tags": {
    "amenity": "shelter",
    "ele": "753.1",
    "type": "lean-to"
  }
},
{
  "type": "node",
  "id": 674525218,
  "lat": 58.2205775,
  "lon": 7.0146906,
  "tags": {
    "amenity": "shelter",
    "backrest": "yes",
    "material": "wood",
    "seats": "6"
  }
},
{
  "type": "node",
  "id": 674525226,
  "lat": 58.2205250,
  "lon": 7.0148901,
  "tags": {
    "amenity": "shelter",
    "backrest": "yes",
    "material": "wood",
    "seats": "6"
  }
},
{
  "type": "node",
  "id": 683477581,
  "lat": 59.0522689,
  "lon": 11.7369471,
  "tags": {
    "amenity": "shelter",
    "fireplace": "yes",
    "shelter_type": "picnic_shelter"
  }
},
{
  "type": "node",
  "id": 685784604,
  "lat": 60.5618793,
  "lon": 5.6703698,
  "tags": {
    "capacity": "18",
    "dnt:classification": "ubetjent",
    "dnt:iid": "156",
    "dnt:lock": "yes",
    "ele": "220",
    "name": "Træet gård",
    "network": "Den Norske Turistforening",
    "operator": "Bergen Turlag",
    "ref:kartverket:hytte": "1032",
    "tourism": "wilderness_hut",
    "website": "https://ut.no/hytte/traeet-gaard"
  }
},
{
  "type": "node",
  "id": 691020049,
  "lat": 59.1879553,
  "lon": 10.9077340,
  "tags": {
    "amenity": "shelter",
    "shelter_type": "lean_to",
    "source": "survey"
  }
},
{
  "type": "node",
  "id": 693895736,
  "lat": 58.9995209,
  "lon": 5.7114103,
  "tags": {
    "amenity": "shelter",
    "fireplace": "yes",
    "name": "Danger",
    "note": "And Danger is its name, oh! Seriously: There is a sign on the lean-to shelter with that name on it..."
  }
},
{
  "type": "node",
  "id": 698846683,
  "lat": 61.3236522,
  "lon": 12.1589670,
  "tags": {
    "amenity": "shelter"
  }
},
{
  "type": "node",
  "id": 698846684,
  "lat": 61.3228587,
  "lon": 12.1590500,
  "tags": {
    "amenity": "shelter"
  }
},
{
  "type": "node",
  "id": 698846685,
  "lat": 61.3227367,
  "lon": 12.1590887,
  "tags": {
    "amenity": "shelter"
  }
},
{
  "type": "node",
  "id": 699850850,
  "lat": 59.1812089,
  "lon": 11.1280176,
  "tags": {
    "amenity": "shelter",
    "fireplace": "yes",
    "shelter_type": "lean_to",
    "source": "survey"
  }
},
{
  "type": "node",
  "id": 715111816,
  "lat": 63.4052566,
  "lon": 10.8379519,
  "tags": {
    "amenity": "shelter",
    "name": "Alfheim"
  }
},
{
  "type": "node",
  "id": 716939661,
  "lat": 60.4270572,
  "lon": 7.4968829,
  "tags": {
    "capacity": "51",
    "dnt:classification": "selvbetjent",
    "dnt:iid": "70",
    "dnt:lock": "yes",
    "ele": "1060",
    "name": "Kjeldebu",
    "network": "Den Norske Turistforening",
    "operator": "DNT Oslo og Omegn",
    "provisions": "yes",
    "ref:kartverket:hytte": "1083",
    "ssr:stedsnr": "752816",
    "supervisor": "DNT Oslo og Omegn",
    "tourism": "wilderness_hut",
    "website": "https://ut.no/hytte/kjeldebu"
  }
},
{
  "type": "node",
  "id": 726921215,
  "lat": 59.1719265,
  "lon": 11.0622586,
  "tags": {
    "amenity": "shelter",
    "fireplace": "yes",
    "name": "Varden Lavo",
    "shelter_type": "lean_to"
  }
},
{
  "type": "node",
  "id": 736356579,
  "lat": 59.2124088,
  "lon": 10.8650314,
  "tags": {
    "amenity": "shelter",
    "fireplace": "yes",
    "note:no": "Bålplass / Hytte",
    "shelter_type": "lean_to"
  }
},
{
  "type": "node",
  "id": 748477786,
  "lat": 61.5030657,
  "lon": 8.1035626,
  "tags": {
    "amenity": "shelter",
    "historic": "yes",
    "name": "Storhilleren",
    "shelter_type": "basic_hut"
  }
},
{
  "type": "node",
  "id": 751989234,
  "lat": 62.5684990,
  "lon": 9.6872890,
  "tags": {
    "amenity": "shelter",
    "ele": "839.4",
    "name": "Landlaupe",
    "type": "lean-to"
  }
},
{
  "type": "node",
  "id": 754402416,
  "lat": 60.9269480,
  "lon": 7.9982265,
  "tags": {
    "capacity": "26",
    "dnt:classification": "selvbetjent",
    "dnt:iid": "22",
    "dnt:lock": "yes",
    "ele": "1580",
    "fee": "yes",
    "name": "Bjordalsbu",
    "network": "Den Norske Turistforening",
    "operator": "DNT Oslo og Omegn",
    "provisions": "yes",
    "ref:kartverket:hytte": "1055",
    "tourism": "wilderness_hut",
    "website": "https://www.ut.no/hytte/3.2080/"
  }
},
{
  "type": "node",
  "id": 754402425,
  "lat": 61.1401685,
  "lon": 8.1755377,
  "tags": {
    "capacity": "24",
    "dnt:classification": "selvbetjent",
    "dnt:iid": "116",
    "dnt:lock": "yes",
    "ele": "1330",
    "fee": "yes",
    "name": "Sulebu",
    "network": "Den Norske Turistforening",
    "operator": "DNT Oslo og Omegn",
    "provisions": "yes",
    "ref:kartverket:hytte": "1134",
    "tourism": "wilderness_hut",
    "website": "https://www.ut.no/hytte/3.1981/"
  }
},
{
  "type": "node",
  "id": 765311400,
  "lat": 60.1691299,
  "lon": 10.4959643,
  "tags": {
    "capacity": "4",
    "dnt:classification": "ubetjent",
    "dnt:iid": "220",
    "dnt:lock": "yes",
    "ele": "485",
    "name": "Sinnerdammen",
    "network": "Den Norske Turistforening",
    "operator": "DNT Oslo og Omegn",
    "ref:kartverket:hytte": "1115",
    "tourism": "wilderness_hut",
    "website": "https://ut.no/hytte/sinnerdammen"
  }
},
{
  "type": "node",
  "id": 766307067,
  "lat": 63.4452314,
  "lon": 11.0029492,
  "tags": {
    "amenity": "shelter",
    "name": "Spigil'n",
    "shelter_type": "lean_to"
  }
},
{
  "type": "node",
  "id": 771820335,
  "lat": 63.4938088,
  "lon": 11.0238851,
  "tags": {
    "amenity": "shelter",
    "shelter_type": "lean_to"
  }
},
{
  "type": "node",
  "id": 771820383,
  "lat": 63.4994893,
  "lon": 11.0379997,
  "tags": {
    "amenity": "shelter",
    "name": "Husåsen",
    "tourism": "chalet"
  }
},
{
  "type": "node",
  "id": 772264010,
  "lat": 59.9550504,
  "lon": 6.9897632,
  "tags": {
    "capacity": "12",
    "dnt:classification": "selvbetjent",
    "dnt:iid": "84",
    "dnt:lock": "yes",
    "ele": "860",
    "name": "Middalsbu",
    "network": "Den Norske Turistforening",
    "operator": "DNT Oslo og Omegn",
    "provisions": "yes",
    "ref:kartverket:hytte": "1097",
    "service": "self",
    "tourism": "wilderness_hut",
    "website": "https://ut.no/hytte/middalsbu"
  }
},
{
  "type": "node",
  "id": 774075725,
  "lat": 59.8632419,
  "lon": 10.4998714,
  "tags": {
    "amenity": "shelter",
    "source": "survey"
  }
},
{
  "type": "node",
  "id": 785550155,
  "lat": 58.2501963,
  "lon": 6.5484355,
  "tags": {
    "capacity": "36",
    "dnt:classification": "ubetjent",
    "dnt:iid": "1844",
    "dnt:lock": "yes",
    "name": "Gården Li",
    "network": "Den Norske Turistforening",
    "operator": "Flekkefjord og Oplands Turistforening",
    "ref:kartverket:hytte": "1475",
    "tourism": "wilderness_hut",
    "website": "https://ut.no/hytte/g%C3%A5rden-li"
  }
},
{
  "type": "node",
  "id": 785840853,
  "lat": 59.8448336,
  "lon": 10.4903862,
  "tags": {
    "amenity": "shelter",
    "source": "survey"
  }
},
{
  "type": "node",
  "id": 792834219,
  "lat": 59.3306661,
  "lon": 11.1732876,
  "tags": {
    "amenity": "shelter",
    "fireplace": "yes",
    "shelter_type": "lean_to",
    "source": "survey"
  }
},
{
  "type": "node",
  "id": 793719444,
  "lat": 59.2364686,
  "lon": 10.9555474,
  "tags": {
    "amenity": "shelter",
    "fireplace": "yes",
    "shelter_type": "lean_to",
    "source": "survey"
  }
},
{
  "type": "node",
  "id": 793719687,
  "lat": 59.2303614,
  "lon": 10.9528628,
  "tags": {
    "amenity": "shelter",
    "shelter_type": "lean_to",
    "source": "survey"
  }
},
{
  "type": "node",
  "id": 794326729,
  "lat": 61.4201643,
  "lon": 6.7541813,
  "tags": {
    "amenity": "shelter"
  }
},
{
  "type": "node",
  "id": 795192305,
  "lat": 63.4103537,
  "lon": 10.7572504,
  "tags": {
    "amenity": "shelter",
    "shelter_type": "lean_to"
  }
},
{
  "type": "node",
  "id": 798875932,
  "lat": 59.7479690,
  "lon": 10.4790023,
  "tags": {
    "amenity": "shelter",
    "shelter_type": "lean_to",
    "source": "survey"
  }
},
{
  "type": "node",
  "id": 798882800,
  "lat": 59.2086286,
  "lon": 10.8319941,
  "tags": {
    "amenity": "shelter",
    "fireplace": "yes",
    "operator": "Slevik Skole",
    "shelter_type": "lean_to"
  }
},
{
  "type": "node",
  "id": 798882804,
  "lat": 60.0897540,
  "lon": 10.9378765,
  "tags": {
    "name": "Spikertjernhytta",
    "operator": "DNT Oslo og Omegn",
    "owner": "Gjerdrum Almenning",
    "ref:kartverket:hytte": "1125",
    "tourism": "wilderness_hut",
    "website": "https://ut.no/hytte/spikertjernhytta"
  }
},
{
  "type": "node",
  "id": 798882809,
  "lat": 60.8932500,
  "lon": 11.3955300,
  "tags": {
    "amenity": "shelter",
    "ele": "332",
    "name": "Nerlikoia",
    "operator": "Løiten Almenning",
    "shelter_type": "basic_hut",
    "website": "https://ut.no/hytte/10535"
  }
},
{
  "type": "node",
  "id": 798882817,
  "lat": 59.7985198,
  "lon": 11.0293603,
  "tags": {
    "capacity": "8",
    "dnt:classification": "ubetjent",
    "dnt:iid": "225",
    "dnt:lock": "yes",
    "ele": "225",
    "name": "Øvresaga",
    "network": "Den Norske Turistforening",
    "operator": "DNT Oslo og Omegn",
    "ref:kartverket:hytte": "1148",
    "tourism": "wilderness_hut",
    "website": "https://ut.no/hytte/oevresaga"
  }
},
{
  "type": "node",
  "id": 798882834,
  "lat": 59.8499039,
  "lon": 11.0097833,
  "tags": {
    "capacity": "6",
    "dnt:classification": "ubetjent",
    "dnt:iid": "219",
    "dnt:lock": "yes",
    "ele": "190",
    "name": "Røyrivannskoia",
    "network": "Den Norske Turistforening",
    "operator": "DNT Oslo og Omegn",
    "ref:kartverket:hytte": "1113",
    "tourism": "wilderness_hut",
    "website": "https://ut.no/hytte/roeyrivannskoia",
    "wikidata": "Q11998957"
  }
},
{
  "type": "node",
  "id": 798882836,
  "lat": 60.6721911,
  "lon": 11.5782717,
  "tags": {
    "capacity": "10",
    "dnt:classification": "ubetjent",
    "dnt:iid": "394",
    "dnt:lock": "yes",
    "ele": "525",
    "name": "Tingstadkoia",
    "network": "Den Norske Turistforening",
    "operator": "Hamar og Hedemarken Turistforening",
    "ref:kartverket:hytte": "1177",
    "tourism": "wilderness_hut",
    "website": "https://ut.no/hytte/tingstadkoia"
  }
},
{
  "type": "node",
  "id": 800375503,
  "lat": 60.0291467,
  "lon": 8.9811316,
  "tags": {
    "capacity": "12",
    "dnt:classification": "ubetjent",
    "dnt:iid": "128",
    "dnt:lock": "yes",
    "ele": "980",
    "fee": "yes",
    "name": "Daggrø",
    "network": "Den Norske Turistforening",
    "operator": "Kongsberg og Omegns Turistforening",
    "provisions": "no",
    "ref:kartverket:hytte": "1149",
    "tourism": "wilderness_hut",
    "website": "https://www.ut.no/hytte/3.1763/"
  }
},
{
  "type": "node",
  "id": 800376072,
  "lat": 60.4013456,
  "lon": 8.9796452,
  "tags": {
    "capacity": "8",
    "dnt:classification": "ubetjent",
    "dnt:iid": "129",
    "dnt:lock": "yes",
    "ele": "1000",
    "fee": "yes",
    "fireplace": "yes",
    "name": "Dalabu",
    "network": "Den Norske Turistforening",
    "operator": "DNT Drammen og Omegn",
    "provisions": "no",
    "ref:kartverket:hytte": "1150",
    "tourism": "wilderness_hut",
    "website": "https://ut.no/hytte/10702/dalabu"
  }
},
{
  "type": "node",
  "id": 801004842,
  "lat": 59.8659239,
  "lon": 10.5320915,
  "tags": {
    "amenity": "shelter",
    "fireplace": "yes",
    "shelter_type": "lean_to",
    "source": "survey"
  }
},
{
  "type": "node",
  "id": 801770719,
  "lat": 62.5009512,
  "lon": 9.1192951,
  "tags": {
    "capacity": "32",
    "dnt:classification": "selvbetjent",
    "dnt:iid": "347",
    "dnt:lock": "yes",
    "ele": "807",
    "name": "Gammelsetra",
    "network": "Den Norske Turistforening",
    "operator": "Kristiansund og Nordmøre Turistforening",
    "provisions": "yes",
    "ref:kartverket:hytte": "1222",
    "tourism": "wilderness_hut",
    "website": "https://ut.no/hytte/gammelsetra"
  }
},
{
  "type": "node",
  "id": 807752724,
  "lat": 59.7997466,
  "lon": 10.4737804,
  "tags": {
    "amenity": "shelter",
    "fireplace": "yes",
    "shelter_type": "lean_to",
    "source": "survey"
  }
},
{
  "type": "node",
  "id": 808461780,
  "lat": 60.8197625,
  "lon": 11.3630827,
  "tags": {
    "amenity": "shelter",
    "fireplace": "yes",
    "operator": "Østvang skole",
    "shelter_type": "lean_to"
  }
},
{
  "type": "node",
  "id": 811149150,
  "lat": 61.0022875,
  "lon": 11.3028200,
  "tags": {
    "amenity": "shelter",
    "heating": "stove",
    "name": "Sjøkoia",
    "operator": "Løiten Almenning",
    "shelter_type": "basic_hut"
  }
},
{
  "type": "node",
  "id": 811149153,
  "lat": 60.9749763,
  "lon": 11.3483428,
  "tags": {
    "access": "yes",
    "name": "Kjølstadkoia",
    "operator": "Løiten Almenning",
    "tourism": "wilderness_hut"
  }
},
{
  "type": "node",
  "id": 826127471,
  "lat": 66.9344022,
  "lon": 14.3883396,
  "tags": {
    "amenity": "shelter"
  }
},
{
  "type": "node",
  "id": 829499077,
  "lat": 59.2000458,
  "lon": 10.9866225,
  "tags": {
    "amenity": "shelter",
    "lockable": "yes",
    "operator": "Gudeberg skole",
    "shelter_type": "lean_to",
    "source": "survey"
  }
},
{
  "type": "node",
  "id": 830599015,
  "lat": 59.3013329,
  "lon": 11.1150515,
  "tags": {
    "amenity": "shelter",
    "fireplace": "yes",
    "shelter_type": "lean_to",
    "source": "survey"
  }
},
{
  "type": "node",
  "id": 831111895,
  "lat": 60.6745949,
  "lon": 7.6995551,
  "tags": {
    "amenity": "shelter"
  }
},
{
  "type": "node",
  "id": 832409141,
  "lat": 63.1636424,
  "lon": 11.7219510,
  "tags": {
    "capacity": "36",
    "dnt:classification": "selvbetjent",
    "dnt:iid": "14",
    "dnt:lock": "yes",
    "ele": "775",
    "name": "Ramsjøhytta",
    "network": "Den Norske Turistforening",
    "operator": "Trondhjems Turistforening",
    "provisions": "yes",
    "ref:kartverket:hytte": "1388",
    "tourism": "wilderness_hut",
    "website": "https://ut.no/hytte/ramsjoehytta"
  }
},
{
  "type": "node",
  "id": 834162783,
  "lat": 59.2221225,
  "lon": 11.0483938,
  "tags": {
    "amenity": "shelter",
    "name": "Skjærviken Lokalsamfunn Natur-SFO",
    "shelter_type": "lean_to"
  }
},
{
  "type": "node",
  "id": 835420599,
  "lat": 60.9320155,
  "lon": 9.4870096,
  "tags": {
    "amenity": "shelter",
    "bench": "yes",
    "bin": "no",
    "name": "Gapahuk",
    "shelter_type": "lean_to"
  }
},
{
  "type": "node",
  "id": 835420602,
  "lat": 60.9314562,
  "lon": 9.4767522,
  "tags": {
    "amenity": "shelter",
    "bench": "yes",
    "bin": "no",
    "name": "Gapahuk",
    "shelter_type": "lean_to"
  }
},
{
  "type": "node",
  "id": 837453905,
  "lat": 62.2127489,
  "lon": 7.7985752,
  "tags": {
    "capacity": "51",
    "dnt:classification": "selvbetjent",
    "dnt:iid": "229",
    "dnt:lock": "yes",
    "ele": "1161",
    "name": "Pyttbua",
    "network": "Den Norske Turistforening",
    "operator": "Ålesund-Sunnmøre Turistforening",
    "provisions": "yes",
    "ref:kartverket:hytte": "1412",
    "supervisor": "Ålesund-Sunnmøre Turistforening",
    "tourism": "wilderness_hut",
    "website": "https://ut.no/hytte/pyttbua"
  }
},
{
  "type": "node",
  "id": 837453913,
  "lat": 62.1727931,
  "lon": 7.4291792,
  "tags": {
    "capacity": "61",
    "dnt:classification": "betjent",
    "dnt:iid": "227",
    "dnt:lock": "yes",
    "ele": "600",
    "name": "Kaldhusseter",
    "network": "Den Norske Turistforening",
    "operator": "Ålesund-Sunnmøre Turistforening",
    "provisions": "yes",
    "ref:kartverket:hytte": "1410",
    "service": "full",
    "supervisor": "Ålesund-Sunnmøre Turistforening",
    "tourism": "wilderness_hut",
    "website": "https://ut.no/hytte/kaldhusseter"
  }
},
{
  "type": "node",
  "id": 837453934,
  "lat": 62.2685920,
  "lon": 7.8317317,
  "tags": {
    "capacity": "28",
    "dnt:classification": "selvbetjent",
    "dnt:iid": "233",
    "dnt:lock": "yes",
    "ele": "870",
    "name": "Vakkerstøylen",
    "network": "Den Norske Turistforening",
    "operator": "Ålesund-Sunnmøre Turistforening",
    "provisions": "yes",
    "ref:kartverket:hytte": "1418",
    "supervisor": "Ålesund-Sunnmøre Turistforening",
    "tourism": "wilderness_hut",
    "website": "https://ut.no/hytte/vakkerstoeylen"
  }
},
{
  "type": "node",
  "id": 837453942,
  "lat": 62.1598382,
  "lon": 7.7010945,
  "tags": {
    "amenity": "shelter",
    "beds": "4",
    "building": "yes",
    "capacity": "4",
    "dnt:classification": "ubetjent",
    "dnt:iid": "236",
    "dnt:lock": "yes",
    "ele": "1180",
    "fixme": "position inaccurate",
    "name": "Fieldfarehytta",
    "network": "Den Norske Turistforening",
    "operator": "Ålesund-Sunnmøre Turistforening",
    "ref:kartverket:hytte": "1463",
    "shelter_type": "lean_to",
    "source": "survey",
    "source:date": "2011-06-16 09:11:43",
    "supervisor": "Ålesund-Sunnmøre Turistforening",
    "tourism": "wilderness_hut",
    "website": "https://ut.no/hytte/fieldfarehytta"
  }
},
{
  "type": "node",
  "id": 840218414,
  "lat": 60.8069800,
  "lon": 11.4908256,
  "tags": {
    "amenity": "shelter",
    "heating": "stove",
    "name": "Gardsmyrkoia",
    "operator": "Løiten Almenning",
    "shelter_type": "basic_hut"
  }
},
{
  "type": "node",
  "id": 844080255,
  "lat": 61.5140061,
  "lon": 8.8538844,
  "tags": {
    "amenity": "shelter",
    "fireplace": "yes"
  }
},
{
  "type": "node",
  "id": 845140060,
  "lat": 58.6678569,
  "lon": 7.8116777,
  "tags": {
    "amenity": "shelter"
  }
},
{
  "type": "node",
  "id": 845182252,
  "lat": 61.3094107,
  "lon": 8.5163116,
  "tags": {
    "capacity": "18",
    "dnt:classification": "selvbetjent",
    "dnt:iid": "127",
    "dnt:lock": "yes",
    "ele": "1050",
    "name": "Yksendalsbu",
    "network": "Den Norske Turistforening",
    "operator": "DNT Oslo og Omegn",
    "provisions": "yes",
    "ref:kartverket:hytte": "1147",
    "supervisor": "DNT Oslo og Omegn",
    "tourism": "wilderness_hut",
    "website": "https://ut.no/hytte/yksendalsbu"
  }
},
{
  "type": "node",
  "id": 845242780,
  "lat": 61.2358071,
  "lon": 8.5324369,
  "tags": {
    "capacity": "14",
    "dnt:classification": "selvbetjent",
    "dnt:iid": "454",
    "dnt:lock": "yes",
    "ele": "1485",
    "name": "Tomashelleren",
    "network": "Den Norske Turistforening",
    "operator": "DNT Oslo og Omegn",
    "provisions": "yes",
    "ref:kartverket:hytte": "1138",
    "tourism": "wilderness_hut",
    "website": "https://ut.no/hytte/tomashelleren"
  }
},
{
  "type": "node",
  "id": 845600185,
  "lat": 61.1149648,
  "lon": 10.0982848,
  "tags": {
    "capacity": "7",
    "dnt:classification": "ubetjent",
    "dnt:iid": "204",
    "dnt:lock": "yes",
    "ele": "920",
    "name": "Skjellbreidhytta",
    "network": "Den Norske Turistforening",
    "operator": "Lillehammer og Omland Turistforening",
    "provisions": "no",
    "ref:kartverket:hytte": "1249",
    "supervisor": "Lillehammer og Omland Turistforening",
    "tourism": "wilderness_hut",
    "website": "https://ut.no/hytte/skjellbreidhytta"
  }
},
{
  "type": "node",
  "id": 845600189,
  "lat": 61.3374674,
  "lon": 9.4454823,
  "tags": {
    "capacity": "27",
    "dnt:classification": "selvbetjent",
    "dnt:iid": "112",
    "dnt:lock": "yes",
    "ele": "1200",
    "name": "Storkvelvbu",
    "network": "Den Norske Turistforening",
    "operator": "DNT Oslo og Omegn",
    "provisions": "yes",
    "ref:kartverket:hytte": "1131",
    "supervisor": "DNT Oslo og Omegn",
    "tourism": "wilderness_hut",
    "website": "https://www.ut.no/hytte/3.1471/"
  }
},
{
  "type": "node",
  "id": 845600193,
  "lat": 61.1723657,
  "lon": 9.9595491,
  "tags": {
    "capacity": "7",
    "dnt:classification": "ubetjent",
    "dnt:iid": "202",
    "dnt:lock": "yes",
    "ele": "812",
    "name": "Kittilbua",
    "network": "Den Norske Turistforening",
    "operator": "Lillehammer og Omland Turistforening",
    "ref:kartverket:hytte": "1246",
    "tourism": "wilderness_hut",
    "website": "https://www.ut.no/hytte/3.1916/"
  }
},
{
  "type": "node",
  "id": 845600199,
  "lat": 60.3937984,
  "lon": 10.8324777,
  "tags": {
    "amenity": "shelter",
    "capacity": "4",
    "dnt:classification": "nødbu",
    "dnt:iid": "1364",
    "ele": "500",
    "heating": "stove",
    "name": "Abborputthytta",
    "network": "Den Norske Turistforening",
    "operator": "Gran Almenning",
    "ref:kartverket:hytte": "5220",
    "shelter_type": "basic_hut",
    "website": "https://ut.no/hytte/abborputthytta"
  }
},
{
  "type": "node",
  "id": 845600200,
  "lat": 61.4261414,
  "lon": 9.1472741,
  "tags": {
    "capacity": "12",
    "dnt:classification": "selvbetjent",
    "dnt:iid": "89",
    "dnt:lock": "yes",
    "ele": "1175",
    "name": "Oskampen",
    "network": "Den Norske Turistforening",
    "operator": "DNT Oslo og Omegn",
    "provisions": "yes",
    "ref:kartverket:hytte": "1104",
    "supervisor": "DNT Oslo og Omegn",
    "tourism": "wilderness_hut",
    "website": "https://ut.no/hytte/oskampen"
  }
},
{
  "type": "node",
  "id": 845600208,
  "lat": 61.4178132,
  "lon": 9.3457943,
  "tags": {
    "capacity": "9",
    "dnt:classification": "selvbetjent",
    "dnt:iid": "450",
    "dnt:lock": "yes",
    "ele": "980",
    "name": "Storhøliseter",
    "network": "Den Norske Turistforening",
    "operator": "DNT Oslo og Omegn",
    "provisions": "yes",
    "ref:kartverket:hytte": "1130",
    "supervisor": "DNT Oslo og Omegn",
    "tourism": "wilderness_hut",
    "website": "https://ut.no/hytte/storhoeliseter"
  }
},
{
  "type": "node",
  "id": 845636238,
  "lat": 61.5733318,
  "lon": 7.5382080,
  "tags": {
    "capacity": "11",
    "dnt:classification": "selvbetjent",
    "dnt:iid": "30",
    "dnt:lock": "yes",
    "ele": "856",
    "name": "Fast",
    "network": "Den Norske Turistforening",
    "operator": "DNT Oslo og Omegn",
    "provisions": "yes",
    "ref:kartverket:hytte": "1062",
    "tourism": "wilderness_hut",
    "website": "https://ut.no/hytte/fast"
  }
},
{
  "type": "node",
  "id": 845636243,
  "lat": 61.5678956,
  "lon": 7.8132941,
  "tags": {
    "capacity": "9",
    "dnt:classification": "selvbetjent",
    "dnt:iid": "113",
    "dnt:lock": "yes",
    "ele": "1035",
    "name": "Stølsdalen",
    "network": "Den Norske Turistforening",
    "operator": "DNT Oslo og Omegn",
    "provisions": "yes",
    "ref:kartverket:hytte": "1132",
    "tourism": "wilderness_hut",
    "website": "https://ut.no/hytte/stoelsdalen"
  }
},
{
  "type": "node",
  "id": 845636247,
  "lat": 61.6406260,
  "lon": 7.5557477,
  "tags": {
    "capacity": "24",
    "dnt:classification": "selvbetjent",
    "dnt:iid": "17",
    "dnt:lock": "yes",
    "ele": "880",
    "name": "Arentzbu",
    "network": "Den Norske Turistforening",
    "operator": "DNT Oslo og Omegn",
    "provisions": "yes",
    "ref:kartverket:hytte": "1052",
    "tourism": "wilderness_hut",
    "website": "https://ut.no/hytte/arentzbu"
  }
},
{
  "type": "node",
  "id": 845742891,
  "lat": 61.4686283,
  "lon": 10.5029685,
  "tags": {
    "capacity": "12",
    "dnt:classification": "selvbetjent",
    "dnt:iid": "205",
    "dnt:lock": "yes",
    "ele": "925",
    "fee": "yes",
    "name": "Vetåbua",
    "network": "Den Norske Turistforening",
    "operator": "Lillehammer og Omland Turistforening",
    "provisions": "yes",
    "ref:kartverket:hytte": "1250",
    "tourism": "wilderness_hut",
    "website": "https://ut.no/hytte/10648"
  }
},
{
  "type": "node",
  "id": 845742898,
  "lat": 61.3823782,
  "lon": 10.7473345,
  "tags": {
    "capacity": "5",
    "dnt:classification": "ubetjent",
    "dnt:iid": "203",
    "dnt:lock": "yes",
    "ele": "1010",
    "fee": "yes",
    "idrettsanleggregisteret:iid": "0521002101",
    "name": "Lyngbua",
    "network": "Den Norske Turistforening",
    "old_name": "Andersonbua",
    "operator": "Lillehammer og Omland Turistforening",
    "owner": "Lillehammer Omegn Turistforening",
    "ref:kartverket:hytte": "1248",
    "tourism": "wilderness_hut",
    "website": "https://ut.no/hytte/10649"
  }
},
{
  "type": "node",
  "id": 845742916,
  "lat": 61.0063674,
  "lon": 12.0871824,
  "tags": {
    "capacity": "2",
    "dnt:classification": "ubetjent",
    "dnt:iid": "379",
    "dnt:lock": "yes",
    "ele": "500",
    "name": "Flisberget",
    "network": "Den Norske Turistforening",
    "operator": "Finnskogen Turistforening",
    "ref:kartverket:hytte": "1161",
    "tourism": "wilderness_hut",
    "website": "https://ut.no/hytte/flisberget"
  }
},
{
  "type": "node",
  "id": 845742926,
  "lat": 61.1553669,
  "lon": 10.9174631,
  "tags": {
    "capacity": "12",
    "dnt:classification": "ubetjent",
    "dnt:iid": "518",
    "dnt:lock": "yes",
    "ele": "666",
    "fee": "yes",
    "fireplace": "yes",
    "idrettsanleggregisteret:iid": "0412021501",
    "name": "Åkersætra",
    "network": "Den Norske Turistforening",
    "operator": "Hamar og Hedemarken Turistforening",
    "owner": "Hamar og Hedemarken Turistforening",
    "ref:kartverket:hytte": "1178",
    "tourism": "wilderness_hut",
    "website": "https://ut.no/hytte/101199"
  }
},
{
  "type": "node",
  "id": 845742948,
  "lat": 61.0166126,
  "lon": 12.0111173,
  "tags": {
    "capacity": "4",
    "dnt:classification": "ubetjent",
    "dnt:iid": "380",
    "dnt:lock": "yes",
    "ele": "505",
    "name": "Juskjølkoia",
    "network": "Den Norske Turistforening",
    "operator": "Finnskogen Turistforening",
    "ref:kartverket:hytte": "1162",
    "tourism": "wilderness_hut",
    "website": "https://ut.no/hytte/juskjoelkoia"
  }
},
{
  "type": "node",
  "id": 845742951,
  "lat": 61.5857799,
  "lon": 10.3536473,
  "tags": {
    "capacity": "12",
    "dnt:classification": "selvbetjent",
    "dnt:iid": "69",
    "dnt:lock": "yes",
    "ele": "1130",
    "fee": "yes",
    "name": "Jammerdalsbu",
    "network": "Den Norske Turistforening",
    "operator": "DNT Oslo og Omegn",
    "provisions": "yes",
    "ref:kartverket:hytte": "1081",
    "tourism": "wilderness_hut",
    "website": "https://ut.no/hytte/10341"
  }
},
{
  "type": "node",
  "id": 845742956,
  "lat": 61.1196233,
  "lon": 11.0538055,
  "tags": {
    "capacity": "6",
    "dnt:classification": "ubetjent",
    "dnt:iid": "384",
    "dnt:lock": "yes",
    "ele": "645",
    "fee": "yes",
    "fireplace": "yes",
    "name": "Halgutusveen",
    "network": "Den Norske Turistforening",
    "operator": "Hamar og Hedemarken Turistforening",
    "ref:kartverket:hytte": "1166",
    "tourism": "wilderness_hut",
    "website": "https://ut.no/hytte/10349"
  }
},
{
  "type": "node",
  "id": 845742971,
  "lat": 61.3724310,
  "lon": 10.5829316,
  "tags": {
    "capacity": "14",
    "dnt:classification": "selvbetjent",
    "dnt:iid": "201",
    "dnt:lock": "yes",
    "ele": "950",
    "fee": "yes",
    "fireplace": "yes",
    "idrettsanleggregisteret:iid": "0521002001",
    "name": "Djupslia",
    "network": "Den Norske Turistforening",
    "operator": "Lillehammer og Omland Turistforening",
    "owner": "Lillehammer Omegn Turistforening",
    "provisions": "yes",
    "ref:kartverket:hytte": "1245",
    "service": "self",
    "tourism": "wilderness_hut",
    "website": "https://ut.no/hytte/10650"
  }
},
{
  "type": "node",
  "id": 845768253,
  "lat": 60.5710149,
  "lon": 10.5284909,
  "tags": {
    "access": "yes",
    "amenity": "shelter",
    "capacity": "4",
    "name": "Kjerringfred",
    "operator": "DNT Gjøvik og Omegn",
    "shelter_type": "basic_hut"
  }
},
{
  "type": "node",
  "id": 847756013,
  "lat": 59.5713108,
  "lon": 10.5800877,
  "tags": {
    "amenity": "shelter",
    "shelter_type": "lean_to"
  }
},
{
  "type": "node",
  "id": 849994019,
  "lat": 60.4573465,
  "lon": 11.2934226,
  "tags": {
    "access": "yes",
    "capacity": "3",
    "dnt:classification": "ubetjent",
    "dnt:iid": "1991",
    "name": "Lysjøhimet",
    "network": "Den Norske Turistforening",
    "ref:kartverket:hytte": "5272",
    "tourism": "wilderness_hut"
  }
},
{
  "type": "node",
  "id": 860172983,
  "lat": 63.7651996,
  "lon": 11.3743272,
  "tags": {
    "amenity": "shelter",
    "fireplace": "yes",
    "name": "Gapahuken på Hansåsen",
    "shelter_type": "weather_shelter"
  }
},
{
  "type": "node",
  "id": 861764641,
  "lat": 64.4885740,
  "lon": 13.4109145,
  "tags": {
    "amenity": "shelter",
    "fireplace": "yes",
    "name": "Skjeldbrua"
  }
},
{
  "type": "node",
  "id": 861765617,
  "lat": 64.4576185,
  "lon": 13.4126101,
  "tags": {
    "amenity": "shelter",
    "fireplace": "yes",
    "name": "Laksjølia"
  }
},
{
  "type": "node",
  "id": 868448580,
  "lat": 63.3484998,
  "lon": 10.4374051,
  "tags": {
    "amenity": "shelter"
  }
},
{
  "type": "node",
  "id": 877651156,
  "lat": 63.7427269,
  "lon": 11.2683957,
  "tags": {
    "access": "yes",
    "amenity": "shelter",
    "fireplace": "yes",
    "ref:kartverket:hytte": "5357",
    "shelter_type": "lean_to",
    "tourism": "picnic_site"
  }
},
{
  "type": "node",
  "id": 886707806,
  "lat": 59.8152519,
  "lon": 11.0440905,
  "tags": {
    "alt_name": "Bøvelstadsætra",
    "capacity": "17",
    "dnt:classification": "ubetjent",
    "dnt:iid": "1530",
    "dnt:lock": "yes",
    "ele": "200",
    "name": "Bøvelstad",
    "network": "Den Norske Turistforening",
    "operator": "DNT Oslo og Omegn",
    "ref:kartverket:hytte": "1470",
    "start_date": "2010-10",
    "tourism": "wilderness_hut",
    "website": "https://ut.no/hytte/3.2042/"
  }
},
{
  "type": "node",
  "id": 891134205,
  "lat": 58.8567660,
  "lon": 5.8578920,
  "tags": {
    "amenity": "shelter",
    "fireplace": "yes",
    "name": "Alsvik natursenter",
    "shelter_type": "picnic_shelter"
  }
},
{
  "type": "node",
  "id": 895774244,
  "lat": 59.8336029,
  "lon": 10.9127187,
  "tags": {
    "amenity": "shelter",
    "building": "cabin"
  }
},
{
  "type": "node",
  "id": 898101834,
  "lat": 59.1119486,
  "lon": 10.0226460,
  "tags": {
    "amenity": "shelter",
    "fireplace": "yes"
  }
},
{
  "type": "node",
  "id": 899535443,
  "lat": 58.2963156,
  "lon": 7.2467141,
  "tags": {
    "amenity": "shelter",
    "fireplace": "yes",
    "name": "Fremhytta",
    "operator": "Friluftsrådet Region Mandal (FREM)",
    "shelter_type": "basic_hut"
  }
},
{
  "type": "node",
  "id": 901717660,
  "lat": 60.1368318,
  "lon": 10.8738914,
  "tags": {
    "amenity": "shelter",
    "fireplace": "yes",
    "shelter_type": "lean_to"
  }
},
{
  "type": "node",
  "id": 908947023,
  "lat": 59.7883552,
  "lon": 10.9620070,
  "tags": {
    "amenity": "shelter",
    "fireplace": "yes",
    "shelter_type": "lean_to"
  }
},
{
  "type": "node",
  "id": 911672609,
  "lat": 60.9626598,
  "lon": 12.2023516,
  "tags": {
    "amenity": "shelter",
    "dnt:classification": "nødbu",
    "dnt:iid": "1547",
    "name": "Gjestgiveriet",
    "network": "Den Norske Turistforening",
    "operator:type": "private",
    "owner": "Statskog",
    "ref:kartverket:hytte": "5673",
    "shelter_type": "basic_hut",
    "website": "https://ut.no/hytte/gjestgiveriet"
  }
},
{
  "type": "node",
  "id": 914841473,
  "lat": 59.1357465,
  "lon": 11.7450242,
  "tags": {
    "amenity": "shelter",
    "fireplace": "yes",
    "name": "Kvernmoen",
    "note": "FIXME: Approx location and atrribs"
  }
},
{
  "type": "node",
  "id": 921133155,
  "lat": 60.6087586,
  "lon": 11.6384681,
  "tags": {
    "amenity": "shelter",
    "capacity": "6",
    "dnt:classification": "nødbu",
    "dnt:iid": "388",
    "ele": "550",
    "name": "Opptrekkern",
    "network": "Den Norske Turistforening",
    "operator": "Våler Idrettslag, Romedal Almenning Turstilag, grunneier Yngve Astrup",
    "ref:kartverket:hytte": "5261",
    "shelter_type": "basic_hut",
    "website": "https://ut.no/hytte/opptrekkern"
  }
},
{
  "type": "node",
  "id": 922484024,
  "lat": 60.5195845,
  "lon": 11.4042369,
  "tags": {
    "capacity": "5",
    "dnt:classification": "ubetjent",
    "dnt:iid": "1422",
    "dnt:lock": "yes",
    "ele": "300",
    "idrettsanleggregisteret:iid": "0417018601",
    "name": "Gammelsaga",
    "network": "Den Norske Turistforening",
    "note": "moved to correct position; position attributed: kfinn",
    "operator": "Hamar og Hedemarken Turistforening",
    "ref:kartverket:hytte": "1429",
    "tourism": "wilderness_hut",
    "website": "https://ut.no/hytte/gammelsaga"
  }
},
{
  "type": "node",
  "id": 923578807,
  "lat": 60.2361636,
  "lon": 10.8549640,
  "tags": {
    "capacity": "10",
    "dnt:classification": "ubetjent",
    "dnt:iid": "1456",
    "dnt:lock": "yes",
    "ele": "490",
    "idrettsanleggregisteret:iid": "0238006101",
    "name": "Råbjørnhytta",
    "network": "Den Norske Turistforening",
    "operator": "DNT Oslo og Omegn",
    "owner": "Nannestad Almenning",
    "ref:kartverket:hytte": "1442",
    "tourism": "wilderness_hut",
    "website": "https://ut.no/hytte/raabjoernhytta"
  }
},
{
  "type": "node",
  "id": 923578814,
  "lat": 60.2622488,
  "lon": 10.7854527,
  "tags": {
    "capacity": "9",
    "dnt:classification": "ubetjent",
    "dnt:iid": "222",
    "dnt:lock": "yes",
    "ele": "525",
    "name": "Snellingen",
    "network": "Den Norske Turistforening",
    "operator": "DNT Oslo og Omegn",
    "ref:kartverket:hytte": "1123",
    "tourism": "wilderness_hut",
    "website": "https://ut.no/hytte/snellingen"
  }
},
{
  "type": "node",
  "id": 923620268,
  "lat": 60.3758666,
  "lon": 10.7147035,
  "tags": {
    "capacity": "10",
    "dnt:classification": "ubetjent",
    "dnt:iid": "1863",
    "dnt:lock": "yes",
    "ele": "553",
    "name": "Kjørestua på Sagvollen",
    "network": "Den Norske Turistforening",
    "operator": "Hadeland Turlag",
    "ref:kartverket:hytte": "1484",
    "tourism": "wilderness_hut",
    "website": "https://ut.no/hytte/sagvollen"
  }
},
{
  "type": "node",
  "id": 923657649,
  "lat": 60.9838062,
  "lon": 11.2385265,
  "tags": {
    "capacity": "10",
    "dnt:classification": "ubetjent",
    "dnt:iid": "387",
    "dnt:lock": "yes",
    "ele": "729",
    "fee": "yes",
    "fireplace": "yes",
    "name": "Målia",
    "network": "Den Norske Turistforening",
    "operator": "Hamar og Hedemarken Turistforening",
    "provisions": "yes",
    "ref:kartverket:hytte": "1169",
    "tourism": "wilderness_hut",
    "website": "https://ut.no/hytte/101194"
  }
},
{
  "type": "node",
  "id": 924079202,
  "lat": 61.0387865,
  "lon": 11.2479329,
  "tags": {
    "capacity": "5",
    "dnt:classification": "selvbetjent",
    "dnt:iid": "391",
    "dnt:lock": "yes",
    "ele": "760",
    "fee": "yes",
    "fireplace": "yes",
    "heating": "stove",
    "name": "Snippkoia",
    "network": "Den Norske Turistforening",
    "operator": "Hamar og Hedemarken Turistforening",
    "ref:kartverket:hytte": "1173",
    "tourism": "wilderness_hut",
    "website": "https://ut.no/hytte/10232"
  }
},
{
  "type": "node",
  "id": 929340470,
  "lat": 62.3759986,
  "lon": 7.7975940,
  "tags": {
    "amenity": "shelter",
    "building": "hut"
  }
},
{
  "type": "node",
  "id": 930427033,
  "lat": 59.8640603,
  "lon": 10.5254151,
  "tags": {
    "amenity": "shelter",
    "fireplace": "yes",
    "shelter_type": "lean_to",
    "source": "survey"
  }
},
{
  "type": "node",
  "id": 930427044,
  "lat": 59.8645856,
  "lon": 10.5267995,
  "tags": {
    "amenity": "shelter",
    "fireplace": "yes",
    "shelter_type": "lean_to",
    "source": "survey"
  }
},
{
  "type": "node",
  "id": 933645225,
  "lat": 60.2333178,
  "lon": 10.9668597,
  "tags": {
    "amenity": "shelter",
    "name": "Jutulhytta",
    "shelter_type": "basic_hut"
  }
},
{
  "type": "node",
  "id": 935065239,
  "lat": 60.8735422,
  "lon": 11.3655350,
  "tags": {
    "amenity": "shelter",
    "fireplace": "yes",
    "shelter_type": "lean_to"
  }
},
{
  "type": "node",
  "id": 936525708,
  "lat": 60.8732635,
  "lon": 11.3596259,
  "tags": {
    "amenity": "shelter",
    "fireplace": "yes",
    "shelter_type": "lean_to"
  }
},
{
  "type": "node",
  "id": 937852318,
  "lat": 59.9587306,
  "lon": 10.9449784,
  "tags": {
    "amenity": "shelter",
    "fireplace": "yes",
    "name": "Kjerringfred",
    "shelter_type": "lean_to"
  }
},
{
  "type": "node",
  "id": 940593104,
  "lat": 59.8714417,
  "lon": 10.5347770,
  "tags": {
    "amenity": "shelter",
    "fireplace": "yes",
    "shelter_type": "lean_to"
  }
},
{
  "type": "node",
  "id": 941754323,
  "lat": 59.8628942,
  "lon": 10.5552354,
  "tags": {
    "amenity": "shelter"
  }
},
{
  "type": "node",
  "id": 945222866,
  "lat": 58.1183322,
  "lon": 6.8150593,
  "tags": {
    "amenity": "shelter",
    "fireplace": "yes",
    "operator": "1. Vanse Speidergruppe",
    "owner": "1. Vanse Speidergruppe",
    "shelter_type": "lean_to"
  }
},
{
  "type": "node",
  "id": 946792350,
  "lat": 59.9821977,
  "lon": 10.6702660,
  "tags": {
    "amenity": "shelter",
    "fireplace": "yes",
    "shelter_type": "lean_to"
  }
},
{
  "type": "node",
  "id": 948586109,
  "lat": 62.4928279,
  "lon": 7.7558716,
  "tags": {
    "amenity": "shelter",
    "fireplace": "yes"
  }
},
{
  "type": "node",
  "id": 951647495,
  "lat": 60.1187479,
  "lon": 10.9217128,
  "tags": {
    "amenity": "shelter",
    "fireplace": "yes",
    "shelter_type": "lean_to"
  }
},
{
  "type": "node",
  "id": 957625021,
  "lat": 59.9490041,
  "lon": 10.7115212,
  "tags": {
    "amenity": "shelter",
    "fireplace": "yes",
    "shelter_type": "lean_to",
    "source": "survey"
  }
},
{
  "type": "node",
  "id": 963551478,
  "lat": 59.9686002,
  "lon": 10.6900903,
  "tags": {
    "amenity": "shelter",
    "leisure": "firepit",
    "shelter_type": "lean_to"
  }
},
{
  "type": "node",
  "id": 965922723,
  "lat": 60.0202193,
  "lon": 10.3237934,
  "tags": {
    "capacity": "7",
    "dnt:classification": "ubetjent",
    "dnt:iid": "2027",
    "dnt:lock": "yes",
    "name": "Jørgenhytta",
    "network": "Den Norske Turistforening",
    "operator": "DNT Oslo og Omegn",
    "ref:kartverket:hytte": "1494",
    "supervisor": "DNT Oslo og Omegn",
    "tourism": "wilderness_hut"
  }
},
{
  "type": "node",
  "id": 966096878,
  "lat": 63.3619646,
  "lon": 10.5196561,
  "tags": {
    "amenity": "shelter"
  }
},
{
  "type": "node",
  "id": 976761811,
  "lat": 59.9872317,
  "lon": 10.4034751,
  "tags": {
    "amenity": "shelter",
    "shelter_type": "lean_to"
  }
},
{
  "type": "node",
  "id": 977750034,
  "lat": 59.6023915,
  "lon": 11.6105713,
  "tags": {
    "amenity": "shelter",
    "shelter_type": "lean_to"
  }
},
{
  "type": "node",
  "id": 986520757,
  "lat": 63.3942693,
  "lon": 10.3903231,
  "tags": {
    "amenity": "shelter",
    "note": "Table with benches inside. Shelter, not small hut. ie. only 3 walls"
  }
},
{
  "type": "node",
  "id": 986520758,
  "lat": 63.3844989,
  "lon": 10.3863929,
  "tags": {
    "amenity": "shelter",
    "note": "Table with benches inside. Shelter, not small hut. ie. only 3 walls"
  }
},
{
  "type": "node",
  "id": 986520759,
  "lat": 63.3898721,
  "lon": 10.3868941,
  "tags": {
    "amenity": "shelter",
    "note": "Table with benches inside. Shelter, not small hut. ie. only 3 walls"
  }
},
{
  "type": "node",
  "id": 986520761,
  "lat": 63.3914442,
  "lon": 10.3930792,
  "tags": {
    "amenity": "shelter",
    "note": "Table with benches inside. Shelter, not small hut. ie. only 3 walls"
  }
},
{
  "type": "node",
  "id": 986520762,
  "lat": 63.4052175,
  "lon": 10.3904754,
  "tags": {
    "amenity": "shelter",
    "note": "Table with benches inside. Shelter, not small hut. ie. only 3 walls"
  }
},
{
  "type": "node",
  "id": 986520764,
  "lat": 63.3924605,
  "lon": 10.3934244,
  "tags": {
    "amenity": "shelter",
    "note": "Table with benches inside. Shelter, not small hut. ie. only 3 walls"
  }
},
{
  "type": "node",
  "id": 996327225,
  "lat": 59.9346134,
  "lon": 10.8974251,
  "tags": {
    "access": "private",
    "amenity": "shelter",
    "shelter_type": "lean_to"
  }
},
{
  "type": "node",
  "id": 996620499,
  "lat": 59.8243528,
  "lon": 11.0355937,
  "tags": {
    "access": "yes",
    "amenity": "shelter",
    "name": "Dæliseterbrakka",
    "shelter_type": "basic_hut"
  }
},
{
  "type": "node",
  "id": 999688883,
  "lat": 59.8513102,
  "lon": 10.8199442,
  "tags": {
    "amenity": "shelter",
    "name": "Lavvo'n",
    "operator": "FAU Munkerud skole",
    "shelter_type": "lean_to"
  }
},
{
  "type": "node",
  "id": 1015552745,
  "lat": 59.7586314,
  "lon": 11.0261797,
  "tags": {
    "amenity": "shelter",
    "name": "Vikstjernkoia",
    "operator": "Enebakk kommune",
    "ref:kartverket:hytte": "5063",
    "shelter_type": "basic_hut"
  }
},
{
  "type": "node",
  "id": 1018757625,
  "lat": 59.8046374,
  "lon": 10.8263693,
  "tags": {
    "amenity": "shelter",
    "shelter_type": "lean_to"
  }
},
{
  "type": "node",
  "id": 1020174757,
  "lat": 59.8243589,
  "lon": 10.8669031,
  "tags": {
    "amenity": "shelter",
    "shelter_type": "lean_to"
  }
},
{
  "type": "node",
  "id": 1028024300,
  "lat": 69.6566363,
  "lon": 18.7978055,
  "tags": {
    "amenity": "shelter",
    "fireplace": "yes",
    "shelter_type": "lean_to"
  }
},
{
  "type": "node",
  "id": 1044199027,
  "lat": 58.9448960,
  "lon": 5.6703400,
  "tags": {
    "amenity": "shelter",
    "bench": "yes",
    "bin": "yes",
    "highway": "bus_stop",
    "name": "Madlaleiren (A)",
    "ref": "A",
    "ref:nsrq": "47254",
    "shelter": "yes",
    "shelter_type": "public_transport",
    "tactile_paving": "yes",
    "wheelchair": "yes"
  }
},
{
  "type": "node",
  "id": 1044199279,
  "lat": 58.9449600,
  "lon": 5.6705560,
  "tags": {
    "amenity": "shelter",
    "bench": "yes",
    "bin": "yes",
    "highway": "bus_stop",
    "name": "Madlaleiren (B)",
    "ref": "B",
    "ref:nsrq": "47253",
    "shelter": "yes",
    "shelter_type": "public_transport",
    "tactile_paving": "yes",
    "wheelchair": "yes"
  }
},
{
  "type": "node",
  "id": 1045362306,
  "lat": 59.2367905,
  "lon": 10.9586681,
  "tags": {
    "amenity": "shelter",
    "fireplace": "yes",
    "shelter_type": "lean_to"
  }
},
{
  "type": "node",
  "id": 1058599059,
  "lat": 60.0218873,
  "lon": 11.0096008,
  "tags": {
    "amenity": "shelter",
    "fireplace": "yes",
    "shelter_type": "lean_to",
    "source": "survey"
  }
},
{
  "type": "node",
  "id": 1094151600,
  "lat": 59.3057350,
  "lon": 11.0210820,
  "tags": {
    "amenity": "shelter",
    "fixme": "resurvey",
    "shelter_type": "lean_to",
    "source": "Bing"
  }
},
{
  "type": "node",
  "id": 1102756655,
  "lat": 59.5636931,
  "lon": 9.0664017,
  "tags": {
    "amenity": "shelter",
    "shelter_type": "lean_to"
  }
},
{
  "type": "node",
  "id": 1110395437,
  "lat": 71.0506985,
  "lon": -8.4256106,
  "tags": {
    "amenity": "shelter",
    "building": "hut",
    "source": "bing"
  }
},
{
  "type": "node",
  "id": 1110395456,
  "lat": 70.9387285,
  "lon": -8.8149337,
  "tags": {
    "amenity": "shelter",
    "building": "hut",
    "name": "Olsbu"
  }
},
{
  "type": "node",
  "id": 1110395577,
  "lat": 70.9040155,
  "lon": -8.9464839,
  "tags": {
    "amenity": "shelter",
    "building": "hut"
  }
},
{
  "type": "node",
  "id": 1126258015,
  "lat": 59.8846072,
  "lon": 10.8672756,
  "tags": {
    "amenity": "shelter",
    "fireplace": "yes",
    "source": "Bing"
  }
},
{
  "type": "node",
  "id": 1132100470,
  "lat": 59.8964471,
  "lon": 10.8722935,
  "tags": {
    "amenity": "shelter",
    "shelter_type": "lean_to"
  }
},
{
  "type": "node",
  "id": 1141455135,
  "lat": 59.5576914,
  "lon": 9.1047352,
  "tags": {
    "amenity": "shelter",
    "shelter_type": "lean_to"
  }
},
{
  "type": "node",
  "id": 1141455862,
  "lat": 59.5529645,
  "lon": 9.1120261,
  "tags": {
    "amenity": "shelter",
    "fireplace": "yes",
    "note": "This is a lavvu, not a lean-to",
    "shelter_type": "lean_to"
  }
},
{
  "type": "node",
  "id": 1163059820,
  "lat": 58.7698977,
  "lon": 6.0726356,
  "tags": {
    "amenity": "shelter",
    "tourism": "picnic_site"
  }
},
{
  "type": "node",
  "id": 1175135058,
  "lat": 59.8816078,
  "lon": 9.1890262,
  "tags": {
    "capacity": "24",
    "dnt:classification": "ubetjent",
    "dnt:iid": "206",
    "dnt:lock": "yes",
    "dog": "yes",
    "ele": "945",
    "name": "Eriksbu",
    "network": "Den Norske Turistforening",
    "operator": "Kongsberg og Omegns Turistforening",
    "ref:kartverket:hytte": "1203",
    "ssr:stedsnr": "914734",
    "supervisor": "Kongsberg og Omegns Turistforening",
    "tourism": "wilderness_hut",
    "website": "https://ut.no/hytte/eriksbu"
  }
},
{
  "type": "node",
  "id": 1175597282,
  "lat": 59.7946398,
  "lon": 9.1557585,
  "tags": {
    "capacity": "30",
    "dnt:classification": "ubetjent",
    "dnt:iid": "208",
    "dnt:lock": "yes",
    "dog": "yes",
    "ele": "1180",
    "name": "Sigridsbu",
    "network": "Den Norske Turistforening",
    "operator": "Kongsberg og Omegns Turistforening",
    "ref:kartverket:hytte": "1205",
    "supervisor": "Kongsberg og Omegns Turistforening",
    "tourism": "wilderness_hut",
    "website": "https://ut.no/hytte/sigridsbu"
  }
},
{
  "type": "node",
  "id": 1177504559,
  "lat": 61.3100089,
  "lon": 12.2477148,
  "tags": {
    "amenity": "shelter"
  }
},
{
  "type": "node",
  "id": 1177505641,
  "lat": 61.3286044,
  "lon": 12.2225805,
  "tags": {
    "amenity": "shelter"
  }
},
{
  "type": "node",
  "id": 1186725060,
  "lat": 59.9823384,
  "lon": 11.1257323,
  "tags": {
    "amenity": "shelter",
    "shelter_type": "lean_to",
    "source": "survey"
  }
},
{
  "type": "node",
  "id": 1187662719,
  "lat": 59.9597902,
  "lon": 10.8544757,
  "tags": {
    "amenity": "shelter",
    "fireplace": "yes",
    "shelter_type": "lean_to",
    "source": "survey"
  }
},
{
  "type": "node",
  "id": 1195725852,
  "lat": 59.9753654,
  "lon": 10.6778972,
  "tags": {
    "amenity": "shelter",
    "shelter_type": "lean_to",
    "source": "knowledge"
  }
},
{
  "type": "node",
  "id": 1199413380,
  "lat": 59.0181858,
  "lon": 5.5986731,
  "tags": {
    "amenity": "shelter"
  }
},
{
  "type": "node",
  "id": 1213120482,
  "lat": 59.5372016,
  "lon": 7.5203312,
  "tags": {
    "capacity": "22",
    "dnt:classification": "selvbetjent",
    "dnt:iid": "243",
    "dnt:lock": "no",
    "ele": "1300",
    "fee": "yes",
    "name": "Tjørnbrotbu",
    "network": "Den Norske Turistforening",
    "operator": "Aust-Agder Turistforening",
    "provisions": "yes",
    "ref:kartverket:hytte": "1012",
    "service": "self",
    "supervisor": "Den Norske Turistforening",
    "tourism": "wilderness_hut",
    "website": "https://ut.no/hytte/tjoernbrotbu"
  }
},
{
  "type": "node",
  "id": 1213120485,
  "lat": 59.4432788,
  "lon": 7.5085987,
  "tags": {
    "capacity": "18",
    "dnt:classification": "selvbetjent",
    "dnt:iid": "21",
    "dnt:lock": "no",
    "ele": "1000",
    "fee": "yes",
    "name": "Berdalsbu",
    "network": "Den Norske Turistforening",
    "operator": "Aust-Agder Turistforening",
    "provisions": "yes",
    "ref:kartverket:hytte": "1054",
    "service": "self",
    "supervisor": "Den Norske Turistforening",
    "tourism": "wilderness_hut",
    "website": "https://ut.no/hytte/berdalsbu"
  }
},
{
  "type": "node",
  "id": 1224202775,
  "lat": 59.8193056,
  "lon": 10.4753296,
  "tags": {
    "amenity": "shelter",
    "fireplace": "yes",
    "shelter_type": "lean_to"
  }
},
{
  "type": "node",
  "id": 1231082327,
  "lat": 63.3444724,
  "lon": 11.2553566,
  "tags": {
    "capacity": "11",
    "dnt:classification": "selvbetjent",
    "dnt:iid": "314",
    "dnt:lock": "yes",
    "ele": "505",
    "name": "Kvitfjellhytta",
    "network": "Den Norske Turistforening",
    "operator": "Nord-Trøndelag Turistforening",
    "provisions": "yes",
    "ref:kartverket:hytte": "1278",
    "service": "self",
    "supervisor": "Nord Trøndelag Turistforening",
    "tourism": "wilderness_hut",
    "website": "https://ut.no/hytte/kvitfjellhytta"
  }
},
{
  "type": "node",
  "id": 1234201640,
  "lat": 63.3951820,
  "lon": 10.4526541,
  "tags": {
    "amenity": "shelter",
    "name": "Utleirabua"
  }
},
{
  "type": "node",
  "id": 1244797956,
  "lat": 59.8054420,
  "lon": 10.4504341,
  "tags": {
    "amenity": "shelter",
    "shelter_type": "lean_to",
    "source": "Norge i bilder"
  }
},
{
  "type": "node",
  "id": 1244902536,
  "lat": 59.7923185,
  "lon": 10.7442720,
  "tags": {
    "amenity": "shelter",
    "fireplace": "yes",
    "shelter_type": "lean_to"
  }
},
{
  "type": "node",
  "id": 1251649026,
  "lat": 59.1742754,
  "lon": 11.4503863,
  "tags": {
    "amenity": "shelter",
    "fireplace": "yes",
    "operator": "Halden Skiklubb",
    "shelter_type": "lean_to"
  }
},
{
  "type": "node",
  "id": 1274761398,
  "lat": 59.1554366,
  "lon": 9.6698713,
  "tags": {
    "amenity": "shelter",
    "fireplace": "yes",
    "name": "Borgemarka Rasteplass"
  }
},
{
  "type": "node",
  "id": 1276288734,
  "lat": 59.6849668,
  "lon": 10.9188675,
  "tags": {
    "amenity": "shelter",
    "fireplace": "yes",
    "shelter_type": "lean_to"
  }
},
{
  "type": "node",
  "id": 1278523408,
  "lat": 59.7476279,
  "lon": 10.8493289,
  "tags": {
    "amenity": "shelter",
    "fireplace": "yes"
  }
},
{
  "type": "node",
  "id": 1283355943,
  "lat": 63.2891387,
  "lon": 11.3415744,
  "tags": {
    "capacity": "12",
    "dnt:classification": "selvbetjent",
    "dnt:iid": "315",
    "dnt:lock": "yes",
    "ele": "620",
    "name": "Prestøyhytta",
    "network": "Den Norske Turistforening",
    "operator": "Nord-Trøndelag Turistforening",
    "provisions": "yes",
    "ref:kartverket:hytte": "1279",
    "tourism": "wilderness_hut",
    "website": "https://ut.no/hytte/prestoeyhytta"
  }
},